[{"id": "9550068981", "name": "3Mills Cycling & Coffee", "lat": 48.1200539, "lng": 11.5585018, "street": "Dreimühlenstraße", "housenumber": "40", "postcode": "80469", "hours": "Mo-Fr 09:00-18:00; Sa 09:00+", "cuisine": "coffee_shop", "outdoor": false, "wheelchair": "", "wifi": false, "phone": "", "website": ""}, {"id": "3338179929", "name": "A - Die Tagesbar", "lat": 48.091483, "lng": 11.5611249, "street": "Grünwalder Straße", "housenumber": "248", "postcode": "81545", "hours": "We-Mo,PH 08:00-11:30,15:00-20:00", "cuisine": "italian;coffee_shop", "outdoor": true, "wheelchair": "no", "wifi": true, "phone": "+49 89 64254691", "website": "https://www.die-tagesbar.de/"}, {"id": "5607919122", "name": "A Little lost", "lat": 48.1421862, "lng": 11.558867, "street": "Lämmerstraße", "housenumber": "6", "postcode": "80335", "hours": "Fr-Su 08:00-17:00; Mo-Th 08:00-15:00", "cuisine": "", "outdoor": false, "wheelchair": "no", "wifi": true, "phone": "", "website": "https://alittlelost.de/"}, {"id": "10900309574", "name": "A small café", "lat": 48.1314564, "lng": 11.571987, "street": "Müllerstraße", "housenumber": "17", "postcode": "80469", "hours": "Mo-Do 09:00-16:00; Fr 09:00-18:00; Sa-Su 09:30-18:00", "cuisine": "", "outdoor": true, "wheelchair": "", "wifi": false, "phone": "", "website": "https://www.asmallcafefornow.com/"}, {"id": "2894519315", "name": "AKA - Aktiv für interKulturellen Austausch e.V.", "lat": 48.1205184, "lng": 11.6135774, "street": "Bad-Schachener-Straße", "housenumber": "2a", "postcode": "81671", "hours": "Mo-Fr 10:00-13:30", "cuisine": "", "outdoor": false, "wheelchair": "yes", "wifi": false, "phone": "", "website": ""}, {"id": "12878898005", "name": "AMAL Cafè/Bäckerei", "lat": 48.1532356, "lng": 11.6297217, "street": "", "housenumber": "", "postcode": "", "hours": "", "cuisine": "", "outdoor": false, "wheelchair": "", "wifi": false, "phone": "", "website": ""}, {"id": "1742801471", "name": "ASZ Alten- und Service-Zentrum", "lat": 48.1312529, "lng": 11.690677, "street": "", "housenumber": "", "postcode": "", "hours": "Mo-Th 08:00-16:00; Fr 08:00-12:00", "cuisine": "", "outdoor": false, "wheelchair": "yes", "wifi": false, "phone": "", "website": ""}, {"id": "417672161", "name": "Al Bacio", "lat": 48.160021, "lng": 11.5779186, "street": "Hohenzollernstraße", "housenumber": "37", "postcode": "80801", "hours": "Mo-Sa 08:00-20:00; Su,PH 10:00-18:00", "cuisine": "italian", "outdoor": true, "wheelchair": "limited", "wifi": true, "phone": "", "website": ""}, {"id": "2359842583", "name": "Alluna Cake", "lat": 48.1076555, "lng": 11.5962346, "street": "Schwanseestraße", "housenumber": "21", "postcode": "81539", "hours": "", "cuisine": "", "outdoor": true, "wheelchair": "", "wifi": false, "phone": "", "website": ""}, {"id": "4948655021", "name": "Alps Coffee - Coffee Shop - Espresso Bar", "lat": 48.1688736, "lng": 11.5349934, "street": "Pickelstraße", "housenumber": "4", "postcode": "", "hours": "Mo-Fr 07:00-18:00; Sa 07:00-14:00; PH,Su off", "cuisine": "", "outdoor": false, "wheelchair": "", "wifi": false, "phone": "", "website": "https://shop.alps-coffee.it/de_de/coffeeshop.html"}, {"id": "11170089252", "name": "Alrighty Coffee", "lat": 48.1232214, "lng": 11.6066051, "street": "", "housenumber": "", "postcode": "", "hours": "", "cuisine": "", "outdoor": true, "wheelchair": "", "wifi": true, "phone": "+49 89 24418599", "website": "https://alrighty.coffee/"}, {"id": "3651429062", "name": "Amadeus", "lat": 48.1389017, "lng": 11.5511586, "street": "", "housenumber": "", "postcode": "", "hours": "", "cuisine": "", "outdoor": false, "wheelchair": "", "wifi": false, "phone": "", "website": ""}, {"id": "4174465290", "name": "Amandines et Chocolats", "lat": 48.0885774, "lng": 11.5592886, "street": "Seybothstraße", "housenumber": "52", "postcode": "81545", "hours": "Mo-Fr 07:00-18:00; Sa,Su 07:00-16:00", "cuisine": "", "outdoor": true, "wheelchair": "yes", "wifi": false, "phone": "+49 89 96991222", "website": "https://amandinesetchocolats.de"}, {"id": "1481084485", "name": "Amuri", "lat": 48.1573996, "lng": 11.5625314, "street": "", "housenumber": "", "postcode": "", "hours": "", "cuisine": "", "outdoor": false, "wheelchair": "limited", "wifi": false, "phone": "", "website": ""}, {"id": "8837084348", "name": "Anna's", "lat": 48.191748, "lng": 11.6200223, "street": "Floriansmühlstraße", "housenumber": "20", "postcode": "80939", "hours": "Mo-Fr 07:00-18:00; Sa 07:00-14:00; Su 08:00-12:00", "cuisine": "", "outdoor": false, "wheelchair": "", "wifi": false, "phone": "", "website": ""}, {"id": "258490963", "name": "Arnold/Werner", "lat": 48.1564251, "lng": 11.5705211, "street": "Georgenstraße", "housenumber": "71", "postcode": "80798", "hours": "Mo-Fr 08:00-10:00", "cuisine": "", "outdoor": false, "wheelchair": "no", "wifi": false, "phone": "", "website": ""}, {"id": "1573738321", "name": "Arte In Tavola", "lat": 48.1508023, "lng": 11.5736751, "street": "", "housenumber": "", "postcode": "", "hours": "Su off, Mo-Fr 11:30-15:00,17:30-24:00, Sa 18:00-01:00", "cuisine": "italian", "outdoor": true, "wheelchair": "no", "wifi": false, "phone": "", "website": ""}, {"id": "3861458704", "name": "Atlas Lounge", "lat": 48.1372155, "lng": 11.5560775, "street": "", "housenumber": "", "postcode": "", "hours": "Mo-Su 15:00-03:00", "cuisine": "", "outdoor": false, "wheelchair": "", "wifi": false, "phone": "", "website": ""}, {"id": "850657224", "name": "Aubinger Herzl", "lat": 48.1599118, "lng": 11.4152758, "street": "", "housenumber": "", "postcode": "", "hours": "Mo-Su 09:00-18:00", "cuisine": "", "outdoor": true, "wheelchair": "limited", "wifi": false, "phone": "+49 89 200 33 754", "website": "https://aubinger-herzl.de/"}, {"id": "2335114176", "name": "Auen-Backshop", "lat": 48.1256974, "lng": 11.5705868, "street": "Auenstraße", "housenumber": "52", "postcode": "", "hours": "Mo-Fr 06:30-17:00; Sa 07:00-13:00; Su 08:00-11:00; PH off", "cuisine": "cake", "outdoor": false, "wheelchair": "limited", "wifi": false, "phone": "+49 89 20209383", "website": ""}, {"id": "3749217951", "name": "Aumüllers Brotfabrik Obersendling", "lat": 48.0955288, "lng": 11.5243995, "street": "Kistlerhofstraße", "housenumber": "70", "postcode": "81379", "hours": "Mo-Fr 06:30-20:00; Sa 06:30-18:00; PH,Su 07:30-18:00", "cuisine": "", "outdoor": true, "wheelchair": "yes", "wifi": false, "phone": "+49 89 88565740", "website": "https://www.max-aumueller.de/"}, {"id": "3808915090", "name": "BAR ELF", "lat": 48.1363496, "lng": 11.578707, "street": "Tal", "housenumber": "11", "postcode": "80331", "hours": "Mo-Sa 08:00-20:00; Su off", "cuisine": "", "outdoor": true, "wheelchair": "limited", "wifi": false, "phone": "", "website": ""}, {"id": "243666968", "name": "BaTo Café", "lat": 48.1532641, "lng": 11.5609351, "street": "Heßstraße", "housenumber": "71", "postcode": "80798", "hours": "Mo off; Tu-Th 08:30-18:30; Sa 09:00-18:30; Su 09:00-17:00", "cuisine": "", "outdoor": true, "wheelchair": "no", "wifi": false, "phone": "", "website": ""}, {"id": "945913069", "name": "Baader Cafe", "lat": 48.1292319, "lng": 11.5771318, "street": "Baaderstraße", "housenumber": "47", "postcode": "80469", "hours": "Mo-Su 09:30-01:00", "cuisine": "breakfast;coffee_shop;german", "outdoor": true, "wheelchair": "no", "wifi": false, "phone": "", "website": ""}, {"id": "5693122917", "name": "Babylon", "lat": 48.1452782, "lng": 11.4709644, "street": "", "housenumber": "", "postcode": "", "hours": "", "cuisine": "", "outdoor": false, "wheelchair": "", "wifi": false, "phone": "", "website": ""}, {"id": "4394675789", "name": "Baci Baci", "lat": 48.1567412, "lng": 11.5646903, "street": "Georgenstraße", "housenumber": "103", "postcode": "", "hours": "Fr 12:00-20:00; Sa 10:00-20:00", "cuisine": "italian", "outdoor": false, "wheelchair": "", "wifi": false, "phone": "", "website": ""}, {"id": "3635409940", "name": "Baci Cafe&Kiosk", "lat": 48.1290151, "lng": 11.5081379, "street": "Friedenheimer Straße", "housenumber": "155", "postcode": "", "hours": "Mo-Fr 08:00-18:00; Sa 08:30-17:00; PH off", "cuisine": "", "outdoor": false, "wheelchair": "no", "wifi": false, "phone": "", "website": ""}, {"id": "2048972656", "name": "Bacio", "lat": 48.080728, "lng": 11.5287657, "street": "Wolfratshauser Straße", "housenumber": "153", "postcode": "81479", "hours": "Mo-Su,PH 10:00-20:00", "cuisine": "ice_cream", "outdoor": true, "wheelchair": "", "wifi": false, "phone": "+49 89 79070112", "website": ""}, {"id": "3681346752", "name": "Back and Flavour", "lat": 48.1389441, "lng": 11.5522584, "street": "", "housenumber": "", "postcode": "", "hours": "Mo-Th 06:30-15:00; Fr 06:30-15:00", "cuisine": "sandwich", "outdoor": false, "wheelchair": "no", "wifi": false, "phone": "", "website": ""}, {"id": "3072229173", "name": "Backhaus & Café", "lat": 48.1385536, "lng": 11.4453001, "street": "Maria-Eich-Straße", "housenumber": "71", "postcode": "81243", "hours": "Mo-Fr 06:00-18:00, Sa 06:00-14:00, Su,PH 08:00-12:00", "cuisine": "", "outdoor": false, "wheelchair": "limited", "wifi": false, "phone": "+49 152 53983393", "website": ""}, {"id": "1427851002", "name": "Backhaus Cafe", "lat": 48.1918365, "lng": 11.5876155, "street": "Maria-Probst-Straße", "housenumber": "6", "postcode": "80939", "hours": "Mo-Sa 07:00-20:00", "cuisine": "", "outdoor": true, "wheelchair": "yes", "wifi": false, "phone": "+49 89 3161935", "website": ""}, {"id": "3559091468", "name": "Backshop Weiß-Blau", "lat": 48.1332516, "lng": 11.5340835, "street": "Heimeranplatz", "housenumber": "5", "postcode": "80339", "hours": "Mo-Fr 06:00-19:00; Sa 07:00-14:00", "cuisine": "", "outdoor": true, "wheelchair": "yes", "wifi": false, "phone": "+49 174 1847857", "website": ""}, {"id": "3819508731", "name": "Backshop weiß-blau", "lat": 48.1362976, "lng": 11.5535703, "street": "", "housenumber": "", "postcode": "", "hours": "Mo-Fr 06:00-18:30; Sa 06:00-17:00", "cuisine": "", "outdoor": false, "wheelchair": "no", "wifi": false, "phone": "", "website": ""}, {"id": "266698157", "name": "Backspielhaus", "lat": 48.1282874, "lng": 11.5940014, "street": "Rosenheimer Platz", "housenumber": "1", "postcode": "81669", "hours": "Mo-Sa 06:30-18:00; Su,PH 08:00-18:00", "cuisine": "breakfast;cake;burger", "outdoor": true, "wheelchair": "no", "wifi": false, "phone": "", "website": ""}, {"id": "328869707", "name": "Backspielhaus", "lat": 48.1728614, "lng": 11.6361548, "street": "", "housenumber": "", "postcode": "", "hours": "We-Su 11:00 -", "cuisine": "", "outdoor": true, "wheelchair": "", "wifi": false, "phone": "", "website": ""}, {"id": "418589822", "name": "Backspielhaus", "lat": 48.1568019, "lng": 11.568829, "street": "Tengstraße", "housenumber": "14", "postcode": "80798", "hours": "Tu-Su 06:30-13:00", "cuisine": "", "outdoor": true, "wheelchair": "no", "wifi": false, "phone": "", "website": ""}, {"id": "3389470863", "name": "Backspielhaus", "lat": 48.148927, "lng": 11.6001101, "street": "Mauerkircherstraße", "housenumber": "2", "postcode": "81679", "hours": "Mo-Su 07:00-22:00", "cuisine": "", "outdoor": true, "wheelchair": "yes", "wifi": false, "phone": "+49 89 90109360", "website": "https://www.backspielhaus.de/"}, {"id": "12169637128", "name": "Backspielhaus", "lat": 48.1443135, "lng": 11.5767472, "street": "Jägerstraße", "housenumber": "2", "postcode": "", "hours": "Mo-Fr 06:30-15:00", "cuisine": "", "outdoor": true, "wheelchair": "", "wifi": false, "phone": "", "website": ""}, {"id": "102944461", "name": "Backspielhaus", "lat": 48.1411143, "lng": 11.6275295, "street": "Weltenburger Straße", "housenumber": "6", "postcode": "81677", "hours": "Su-Sa 06:30-22:00", "cuisine": "", "outdoor": false, "wheelchair": "", "wifi": false, "phone": "+49 89 9287090", "website": "https://www.backspielhaus.de/"}, {"id": "8790183808", "name": "Backstube Wünsche", "lat": 48.1017123, "lng": 11.6448589, "street": "", "housenumber": "", "postcode": "", "hours": "", "cuisine": "", "outdoor": false, "wheelchair": "", "wifi": false, "phone": "", "website": ""}, {"id": "9473424979", "name": "Backstube Wünsche", "lat": 48.133653, "lng": 11.5242544, "street": "", "housenumber": "", "postcode": "", "hours": "Mo-Sa 07:00-20:00", "cuisine": "", "outdoor": false, "wheelchair": "", "wifi": false, "phone": "", "website": ""}, {"id": "700102103", "name": "Baldini", "lat": 48.1356398, "lng": 11.572472, "street": "", "housenumber": "", "postcode": "", "hours": "", "cuisine": "", "outdoor": false, "wheelchair": "", "wifi": false, "phone": "", "website": ""}, {"id": "6769271545", "name": "Balkanbäckerei Ana Pek", "lat": 48.0956317, "lng": 11.4965051, "street": "Winterthurer Straße", "housenumber": "2", "postcode": "81476", "hours": "Mo-Sa 06:00-21:00; Su 07:00-21:00; PH 07:00-21:00", "cuisine": "ice_cream", "outdoor": true, "wheelchair": "", "wifi": false, "phone": "", "website": ""}, {"id": "5625296634", "name": "Bancø de Cafe", "lat": 48.1421207, "lng": 11.5029102, "street": "", "housenumber": "", "postcode": "", "hours": "", "cuisine": "", "outdoor": false, "wheelchair": "", "wifi": false, "phone": "", "website": ""}, {"id": "447786256", "name": "Bar Alpina im Schuster", "lat": 48.1363297, "lng": 11.5742114, "street": "Rindermarkt", "housenumber": "13/14", "postcode": "80331", "hours": "Mo-Fr 08:00-22:00; Sa 09:00-22:00, Su,PH off", "cuisine": "", "outdoor": true, "wheelchair": "yes", "wifi": false, "phone": "", "website": "https://www.alpinabar.de/"}, {"id": "844503789", "name": "Bar Centrale", "lat": 48.1368034, "lng": 11.5797997, "street": "Ledererstraße", "housenumber": "23", "postcode": "80331", "hours": "Mo-We 07:30-24:00; Th,Fr 07:30-01:00; Sa 08:30-01:00; Su 09:30-16:30", "cuisine": "italian", "outdoor": true, "wheelchair": "no", "wifi": false, "phone": "+49 89 22 37 62", "website": "https://www.bar-centrale.com/"}, {"id": "10865131962", "name": "Bar Roma", "lat": 48.1368292, "lng": 11.5788093, "street": "", "housenumber": "", "postcode": "", "hours": "", "cuisine": "", "outdoor": true, "wheelchair": "", "wifi": false, "phone": "", "website": ""}, {"id": "390919931", "name": "Bar Tabacco", "lat": 48.1394903, "lng": 11.5726579, "street": "Hartmannstraße", "housenumber": "8", "postcode": "80333", "hours": "Mo-Sa 17:00-03:00", "cuisine": "", "outdoor": false, "wheelchair": "limited", "wifi": false, "phone": "", "website": ""}, {"id": "5768780958", "name": "Baresta", "lat": 48.1485493, "lng": 11.5619682, "street": "Augustenstraße", "housenumber": "43", "postcode": "80333", "hours": "Mo-Fr 08:30-19:00; Sa 09:30-16:00", "cuisine": "coffee_shop", "outdoor": true, "wheelchair": "limited", "wifi": false, "phone": "", "website": ""}, {"id": "5762158854", "name": "Barista Sistar", "lat": 48.1133481, "lng": 11.5851385, "street": "", "housenumber": "", "postcode": "", "hours": "Mo-Fr 07:30-17:00; Sa 09:30-17:00", "cuisine": "", "outdoor": false, "wheelchair": "no", "wifi": false, "phone": "", "website": ""}, {"id": "2554581916", "name": "Bauers Backstube", "lat": 48.0980516, "lng": 11.5239298, "street": "", "housenumber": "", "postcode": "", "hours": "Mo-Fr 05:30-18:00", "cuisine": "", "outdoor": false, "wheelchair": "no", "wifi": false, "phone": "+49 89 74847794", "website": ""}, {"id": "3643387753", "name": "Bean Batter", "lat": 48.1378112, "lng": 11.5449612, "street": "", "housenumber": "", "postcode": "80339", "hours": "Mo-Su 10:00-17:00", "cuisine": "", "outdoor": true, "wheelchair": "no", "wifi": false, "phone": "", "website": "https://www.bean-batter.de/"}, {"id": "278393620", "name": "BeerenCafé", "lat": 48.1614727, "lng": 11.6510414, "street": "", "housenumber": "", "postcode": "", "hours": "Su-Th 10:00-19:30, Fr-Sa 10:00-20:00", "cuisine": "", "outdoor": true, "wheelchair": "", "wifi": false, "phone": "", "website": "https://www.hofreiter.de/beerencaf%C3%A9/"}, {"id": "350441005", "name": "BeerenCafé", "lat": 48.2202855, "lng": 11.5319193, "street": "", "housenumber": "", "postcode": "", "hours": "10:00-19:00", "cuisine": "", "outdoor": true, "wheelchair": "", "wifi": false, "phone": "", "website": "https://www.hofreiter.de/beerencaf%C3%A9/"}, {"id": "3007427293", "name": "Beerencafé", "lat": 48.1753608, "lng": 11.4214817, "street": "", "housenumber": "", "postcode": "", "hours": "Mo-Su 10:00-19:00", "cuisine": "", "outdoor": false, "wheelchair": "", "wifi": false, "phone": "+49 89 54650056", "website": "https://www.hofreiter.de/"}, {"id": "5583057607", "name": "Bei Labi", "lat": 48.1376927, "lng": 11.551441, "street": "Hermann-Lingg-Straße", "housenumber": "14", "postcode": "", "hours": "Mo-Fr 06:00-18:00; Sa 07:00-16:00; Su,PH off", "cuisine": "coffee_shop", "outdoor": true, "wheelchair": "limited", "wifi": false, "phone": "", "website": ""}, {"id": "5281938163", "name": "Bellevue di Monaco", "lat": 48.1331472, "lng": 11.5742954, "street": "Müllerstraße", "housenumber": "6", "postcode": "80469", "hours": "Tu 11:00-17:00; We 11:00-18:00; Th-Sa 11:00-22:00", "cuisine": "international", "outdoor": true, "wheelchair": "limited", "wifi": true, "phone": "", "website": ""}, {"id": "701376207", "name": "Bellisimo", "lat": 48.1387959, "lng": 11.5639236, "street": "Bayerstraße", "housenumber": "", "postcode": "80335", "hours": "", "cuisine": "", "outdoor": false, "wheelchair": "limited", "wifi": false, "phone": "", "website": ""}, {"id": "8423105095", "name": "Bici Bavarese", "lat": 48.1473121, "lng": 11.5742182, "street": "Türkenstraße", "housenumber": "26", "postcode": "80333", "hours": "", "cuisine": "", "outdoor": true, "wheelchair": "limited", "wifi": false, "phone": "", "website": ""}, {"id": "6409611945", "name": "Bicicletta", "lat": 48.1714718, "lng": 11.5865671, "street": "Leopoldstraße", "housenumber": "170", "postcode": "80804", "hours": "Tu-Su 08:00-18:00", "cuisine": "", "outdoor": true, "wheelchair": "yes", "wifi": false, "phone": "", "website": ""}, {"id": "4532822625", "name": "Billy’s", "lat": 48.1515986, "lng": 11.5810564, "street": "Adalbertstraße", "housenumber": "6", "postcode": "80799", "hours": "Mo-Fr 08:00-18:30; Sa,Su,Ph Off", "cuisine": "", "outdoor": true, "wheelchair": "no", "wifi": false, "phone": "", "website": ""}, {"id": "1795365717", "name": "Bistro Lavash Gözleme", "lat": 48.1382351, "lng": 11.5587798, "street": "Goethestraße", "housenumber": "7a", "postcode": "", "hours": "Mo-We 11:00-21:00; Fr-Sa 11:00-22:00; Su 11:00-20:00", "cuisine": "turkish", "outdoor": false, "wheelchair": "", "wifi": false, "phone": "", "website": ""}, {"id": "1371830504", "name": "Bistro+Cafe ÖQ", "lat": 48.1512011, "lng": 11.6096496, "street": "", "housenumber": "", "postcode": "", "hours": "Mo-Fr 11:30-15:00", "cuisine": "organic", "outdoor": false, "wheelchair": "yes", "wifi": false, "phone": "", "website": ""}, {"id": "8790211893", "name": "Biu Tea", "lat": 48.1004718, "lng": 11.644719, "street": "", "housenumber": "", "postcode": "", "hours": "Mo-Sa 09:30-20:00", "cuisine": "bubble_tea", "outdoor": false, "wheelchair": "yes", "wifi": false, "phone": "", "website": ""}, {"id": "2062039159", "name": "Black Bean", "lat": 48.1627926, "lng": 11.5769863, "street": "Pündterplatz", "housenumber": "1", "postcode": "80803", "hours": "Mo-Fr 07:30-17:30; Sa-Su 08:00-17:30; PH 07:30-18:30", "cuisine": "coffee_shop", "outdoor": false, "wheelchair": "no", "wifi": true, "phone": "", "website": "http://blackbean-muenchen.de/"}, {"id": "4432887469", "name": "BoboQ", "lat": 48.1387328, "lng": 11.5647445, "street": "Karlsplatz", "housenumber": "21", "postcode": "", "hours": "Mo-Sa 10:00-22:00", "cuisine": "bubble_tea", "outdoor": false, "wheelchair": "", "wifi": false, "phone": "", "website": "http://www.boboq.de/"}, {"id": "2178313161", "name": "Bohne & Malz", "lat": 48.1377635, "lng": 11.56593, "street": "Sonnenstraße", "housenumber": "11", "postcode": "80331", "hours": "Th-Sa 09:00-01:00; Mo-We, Su 09:00-00:00", "cuisine": "regional", "outdoor": true, "wheelchair": "limited", "wifi": false, "phone": "", "website": ""}, {"id": "1871455028", "name": "Botanista", "lat": 48.1305519, "lng": 11.5671817, "street": "Pestalozzistraße", "housenumber": "20", "postcode": "80469", "hours": "", "cuisine": "", "outdoor": false, "wheelchair": "no", "wifi": false, "phone": "", "website": ""}, {"id": "3035320744", "name": "Bowls & Blenders", "lat": 48.1312052, "lng": 11.589766, "street": "", "housenumber": "", "postcode": "", "hours": "Mo-Su 10:00-20:00", "cuisine": "", "outdoor": true, "wheelchair": "", "wifi": false, "phone": "", "website": ""}, {"id": "317519907", "name": "Bremer Teehandelskontor", "lat": 48.1380376, "lng": 11.5648618, "street": "Karlsplatz", "housenumber": "1", "postcode": "80335", "hours": "Mo-Sa 10:00-19:00", "cuisine": "", "outdoor": false, "wheelchair": "yes", "wifi": false, "phone": "", "website": ""}, {"id": "2335069095", "name": "Brez'n Eck", "lat": 48.1267427, "lng": 11.5825635, "street": "Schweigerstraße", "housenumber": "14", "postcode": "", "hours": "Mo-Fr 06:00-18:00; Sa 06:30-12:00; Su 07:00-12:00", "cuisine": "pretzel", "outdoor": true, "wheelchair": "limited", "wifi": false, "phone": "", "website": ""}, {"id": "4770264871", "name": "Brotmanufaktur Schmidt", "lat": 48.1326013, "lng": 11.6226016, "street": "Neumarkter Straße", "housenumber": "47", "postcode": "81673", "hours": "Mo-Fr 06:30-16:00; Sa 07:00-13:00; Su,PH off", "cuisine": "", "outdoor": true, "wheelchair": "", "wifi": false, "phone": "", "website": ""}, {"id": "4561736350", "name": "Brown's Tea Bar", "lat": 48.149849, "lng": 11.5758417, "street": "Türkenstraße", "housenumber": "60", "postcode": "", "hours": "Mo-Sa 11:00-17:00; Su,PH 13:00-17:00", "cuisine": "", "outdoor": true, "wheelchair": "yes", "wifi": false, "phone": "+49 89 25 54 38 39", "website": "https://www.victorianhouse.de/"}, {"id": "12470817449", "name": "Bubble Tea & Sushi", "lat": 48.1881248, "lng": 11.4677504, "street": "", "housenumber": "", "postcode": "", "hours": "", "cuisine": "bubble_tea", "outdoor": false, "wheelchair": "", "wifi": false, "phone": "", "website": ""}, {"id": "843782171", "name": "Butter", "lat": 48.1499159, "lng": 11.5404547, "street": "Blutenburgstraße", "housenumber": "90", "postcode": "80636", "hours": "Mo-Fr 08:00-17:00; Sa,Su off", "cuisine": "", "outdoor": true, "wheelchair": "no", "wifi": false, "phone": "", "website": ""}, {"id": "1157455171", "name": "Butterbrot", "lat": 48.1608586, "lng": 11.5914521, "street": "Feilitzschstraße", "housenumber": "31", "postcode": "80802", "hours": "Mo,Tu,Th,Fr 08:00-18:00; We,Sa 08:00-13:00; Su 09:00-17:00", "cuisine": "", "outdoor": false, "wheelchair": "no", "wifi": false, "phone": "", "website": ""}, {"id": "5896184903", "name": "Bäckerei Konditorei Café Paul Isaak", "lat": 48.1582279, "lng": 11.5128338, "street": "Südliche Auffahrtsallee", "housenumber": "73", "postcode": "80639", "hours": "Mo 06:30-14:00; Tu-Fr 06:30-18:00; Sa 06:30-12:00; Su 08:00-18:00", "cuisine": "", "outdoor": true, "wheelchair": "limited", "wifi": false, "phone": "+49 89 171578", "website": "https://paul-isaak.com/"}, {"id": "1382537870", "name": "Bäckerei Müller", "lat": 48.0719857, "lng": 11.5197873, "street": "Wolfratshauser Straße", "housenumber": "215", "postcode": "81479", "hours": "Mo-Fr 06:30-19:00; Sa 06:30-13:00; Su 07:30-12:30", "cuisine": "", "outdoor": false, "wheelchair": "yes", "wifi": false, "phone": "", "website": ""}, {"id": "699724074", "name": "Bäckerei Ziegler", "lat": 48.1154282, "lng": 11.5794882, "street": "Tegernseer Platz", "housenumber": "4", "postcode": "81541", "hours": "Su 08:00-14:00; Mo-Fr 06:00-19:00; Sa 07:00-16:00", "cuisine": "", "outdoor": true, "wheelchair": "limited", "wifi": false, "phone": "", "website": ""}, {"id": "4177053610", "name": "Bäckerei Zöttl", "lat": 48.1127539, "lng": 11.5080004, "street": "", "housenumber": "", "postcode": "", "hours": "Mo-Sa 07:00-20:00; Su 08:00-12:00+", "cuisine": "", "outdoor": false, "wheelchair": "yes", "wifi": false, "phone": "", "website": ""}, {"id": "4783208621", "name": "Böcklin Coffee", "lat": 48.1470452, "lng": 11.560299, "street": "Brienner Straße", "housenumber": "55", "postcode": "", "hours": "Mo-Fr 06:30-18:00; Sa,Su 08:00-18:00", "cuisine": "", "outdoor": true, "wheelchair": "", "wifi": false, "phone": "", "website": ""}, {"id": "6284579807", "name": "Cafe 1", "lat": 48.1308537, "lng": 11.6152799, "street": "Berg-am-Laim-Straße", "housenumber": "50", "postcode": "81671", "hours": "Mo-Fr 06:00-16:00; Sa,Su 07:00-15:00; PH off", "cuisine": "coffee_shop;italian", "outdoor": true, "wheelchair": "", "wifi": false, "phone": "+49 89 66667726", "website": ""}, {"id": "3202904328", "name": "Cafe 90 Min", "lat": 48.1093646, "lng": 11.5949389, "street": "", "housenumber": "", "postcode": "", "hours": "", "cuisine": "", "outdoor": false, "wheelchair": "", "wifi": false, "phone": "", "website": ""}, {"id": "1767282440", "name": "Cafe A.", "lat": 48.0983799, "lng": 11.5329105, "street": "Baierbrunner Straße", "housenumber": "16", "postcode": "81379", "hours": "Mo-Th 07:00-15:30; Fr 07:00-15:00", "cuisine": "", "outdoor": true, "wheelchair": "no", "wifi": false, "phone": "+49 89 55293275", "website": ""}, {"id": "6840405993", "name": "Cafe Amadeus", "lat": 48.2089799, "lng": 11.5545924, "street": "Weitlstraße", "housenumber": "66", "postcode": "80935", "hours": "Tu-Su 11:00-18:00", "cuisine": "coffee_shop", "outdoor": true, "wheelchair": "yes", "wifi": false, "phone": "", "website": ""}, {"id": "1813640453", "name": "Cafe Amalien", "lat": 48.1516021, "lng": 11.579117, "street": "Amalienstraße", "housenumber": "87", "postcode": "80799", "hours": "Mo-Fr 07:00-19:00; Sa 08:00-16:00; Su,PH off", "cuisine": "", "outdoor": true, "wheelchair": "yes", "wifi": false, "phone": "", "website": ""}, {"id": "798937114", "name": "Cafe Anteportas", "lat": 48.1060277, "lng": 11.5374556, "street": "Flößergasse", "housenumber": "6e", "postcode": "81369", "hours": "Mo-Fr 07:30-16:00", "cuisine": "", "outdoor": true, "wheelchair": "", "wifi": false, "phone": "", "website": ""}, {"id": "2205792696", "name": "Cafe Aran", "lat": 48.1407853, "lng": 11.5763529, "street": "Theatinerstraße", "housenumber": "12", "postcode": "80333", "hours": "Mo-Sa 10:00-20:00", "cuisine": "", "outdoor": true, "wheelchair": "yes", "wifi": false, "phone": "", "website": ""}, {"id": "12029862472", "name": "Cafe Arcadas", "lat": 48.1422984, "lng": 11.516032, "street": "Landsberger Straße", "housenumber": "214a", "postcode": "", "hours": "", "cuisine": "", "outdoor": false, "wheelchair": "", "wifi": false, "phone": "", "website": ""}, {"id": "1227896836", "name": "Cafe Arnold", "lat": 48.1465211, "lng": 11.570511, "street": "Barer Straße", "housenumber": "36", "postcode": "80333", "hours": "Mo-Th 06:00-14:00; Fr 06:00-14:00", "cuisine": "coffee_shop", "outdoor": false, "wheelchair": "limited", "wifi": false, "phone": "+49 89 283200", "website": ""}, {"id": "311709815", "name": "Cafe BLUe", "lat": 48.1238739, "lng": 11.548284, "street": "Implerstraße", "housenumber": "2", "postcode": "81371", "hours": "Mo-Su 10:00-01:00", "cuisine": "", "outdoor": true, "wheelchair": "no", "wifi": false, "phone": "+49 89 74664693", "website": "https://cafeblue.de/"}, {"id": "5325117014", "name": "Cafe Bar 11er", "lat": 48.1464159, "lng": 11.4649393, "street": "", "housenumber": "", "postcode": "", "hours": "", "cuisine": "", "outdoor": false, "wheelchair": "", "wifi": false, "phone": "", "website": ""}, {"id": "3730777509", "name": "Cafe Bar Karl", "lat": 48.1994378, "lng": 11.6269295, "street": "Freisinger Landstraße", "housenumber": "84", "postcode": "80939", "hours": "Mo-Fr 07:00-20:00; Sa, Su 08:00-20:00", "cuisine": "", "outdoor": true, "wheelchair": "yes", "wifi": false, "phone": "", "website": ""}, {"id": "2018066448", "name": "Cafe Bistro Central", "lat": 48.1170262, "lng": 11.5824573, "street": "Alpenstraße", "housenumber": "10", "postcode": "81541", "hours": "", "cuisine": "", "outdoor": true, "wheelchair": "yes", "wifi": false, "phone": "", "website": ""}, {"id": "1091413909", "name": "Cafe Bistro Pfundig", "lat": 48.1283005, "lng": 11.5576728, "street": "Lindwurmstraße", "housenumber": "95a", "postcode": "80337", "hours": "", "cuisine": "", "outdoor": true, "wheelchair": "limited", "wifi": false, "phone": "", "website": ""}, {"id": "433909590", "name": "Cafe Clara", "lat": 48.1559258, "lng": 11.5705445, "street": "Isabellastraße", "housenumber": "8", "postcode": "80798", "hours": "Mo-Su 09:30-19:00", "cuisine": "", "outdoor": false, "wheelchair": "no", "wifi": true, "phone": "", "website": ""}, {"id": "3056895934", "name": "Cafe Dante 27", "lat": 48.1679963, "lng": 11.5265566, "street": "Dantestraße", "housenumber": "27", "postcode": "80637", "hours": "Mo-Su 09:00-18:00", "cuisine": "", "outdoor": true, "wheelchair": "yes", "wifi": false, "phone": "+49 89 1575567", "website": ""}, {"id": "8476685724", "name": "Cafe Duuo", "lat": 48.1356584, "lng": 11.5386406, "street": "Gollierstraße", "housenumber": "53", "postcode": "80339", "hours": "We, Fr 09:00-17:00; Th 09:00-22:00; Sa-Su 10:00-16:00", "cuisine": "breakfast", "outdoor": true, "wheelchair": "no", "wifi": false, "phone": "", "website": ""}, {"id": "660718890", "name": "Cafe Factory", "lat": 48.0943275, "lng": 11.4987648, "street": "Forstenrieder Allee", "housenumber": "61", "postcode": "81476", "hours": "Mo-Fr 06:30-22:00; Sa 06:30-19:00; Su,PH 08:00-19:00", "cuisine": "turkish;ice_cream", "outdoor": true, "wheelchair": "yes", "wifi": false, "phone": "+49 89 55000537", "website": "https://cafe-factory.eatbu.com/"}, {"id": "10575307360", "name": "Cafe Franz", "lat": 48.1572776, "lng": 11.5718948, "street": "Agnesstraße", "housenumber": "6", "postcode": "80801", "hours": "Mo-SA 07:00-16:30, Su 08:00-17:30", "cuisine": "", "outdoor": true, "wheelchair": "", "wifi": false, "phone": "", "website": ""}, {"id": "1466688794", "name": "Cafe Girandola", "lat": 48.1660885, "lng": 11.5033131, "street": "", "housenumber": "", "postcode": "", "hours": "Mo-Fr 09:00-17:00; Sa-Su 10:00-17:00", "cuisine": "", "outdoor": true, "wheelchair": "yes", "wifi": false, "phone": "", "website": ""}, {"id": "1349935435", "name": "Cafe Glückskind", "lat": 48.1348031, "lng": 11.602599, "street": "Seeriederstraße", "housenumber": "9", "postcode": "81675", "hours": "Tu-Su 09:00-19:00; Mo off", "cuisine": "coffee_shop", "outdoor": false, "wheelchair": "yes", "wifi": true, "phone": "+49 89 411 71 667", "website": "https://cafe-glueckskind-muenchen.de/"}, {"id": "1741222733", "name": "Cafe Grass", "lat": 48.1182593, "lng": 11.5402617, "street": "", "housenumber": "", "postcode": "", "hours": "Mo-Fr 08:30-18:00; Sa 08:30-17:00; Su 13:30-17:30", "cuisine": "", "outdoor": false, "wheelchair": "limited", "wifi": false, "phone": "+49 89 775879", "website": "https://www.cafe-grass.de/"}, {"id": "3790674997", "name": "Cafe Herrmann", "lat": 48.1371651, "lng": 11.5556896, "street": "Paul-Heyse-Straße", "housenumber": "14", "postcode": "80336", "hours": "Mo-Th 08:00-14:00; Fr 08:00-13:00; Su 09:00-13:00", "cuisine": "", "outdoor": true, "wheelchair": "no", "wifi": false, "phone": "+49 89 534966", "website": ""}, {"id": "6299448434", "name": "Cafe I", "lat": 48.1160039, "lng": 11.5911888, "street": "", "housenumber": "", "postcode": "", "hours": "Mo-Su 09:00-03:00", "cuisine": "", "outdoor": false, "wheelchair": "no", "wifi": false, "phone": "", "website": ""}, {"id": "305909095", "name": "Cafe Jasmin", "lat": 48.1038177, "lng": 11.5935833, "street": "Hohenschwangauplatz", "housenumber": "35a", "postcode": "81549", "hours": "Mo-Fr 06:30-19:00, Sa 07:00-17:00, Su,PH 08:00-17:00", "cuisine": "", "outdoor": false, "wheelchair": "no", "wifi": false, "phone": "+49 89 64913977", "website": ""}, {"id": "5768799990", "name": "Cafe Jasmin", "lat": 48.1500197, "lng": 11.5637198, "street": "Steinheilstraße", "housenumber": "20", "postcode": "80333", "hours": "Mo-Su,PH 10:00-01:00; Dec 24 16:00-01:00", "cuisine": "", "outdoor": true, "wheelchair": "limited", "wifi": false, "phone": "", "website": ""}, {"id": "1423634851", "name": "Cafe Kieferngarten", "lat": 48.2030974, "lng": 11.613423, "street": "", "housenumber": "", "postcode": "", "hours": "Tu-Su 11:30-18:00", "cuisine": "", "outdoor": false, "wheelchair": "", "wifi": false, "phone": "", "website": ""}, {"id": "3888352285", "name": "Cafe Lotti", "lat": 48.1496384, "lng": 11.5594619, "street": "Schleißheimer Straße", "housenumber": "13", "postcode": "80333", "hours": "Mo-Su 10:00-18:00", "cuisine": "", "outdoor": true, "wheelchair": "no", "wifi": false, "phone": "", "website": ""}, {"id": "307740749", "name": "Cafe Luitpold - Palmengarten", "lat": 48.1429694, "lng": 11.574757, "street": "Brienner Straße", "housenumber": "11", "postcode": "80333", "hours": "Mo-Fr 11:30-20:00; PH,Sa,Su 12:00-20:00", "cuisine": "regional;coffee_shop", "outdoor": true, "wheelchair": "yes", "wifi": false, "phone": "", "website": ""}, {"id": "1813633551", "name": "Cafe Mangfall", "lat": 48.0974641, "lng": 11.581659, "street": "Mangfallplatz", "housenumber": "9", "postcode": "81547", "hours": "Mo-Fr 06:00-18:00; Sa 06:00-16:00; Su 07:00-16:00", "cuisine": "", "outdoor": true, "wheelchair": "no", "wifi": false, "phone": "+49 89 6906373", "website": ""}, {"id": "4265667652", "name": "Cafe Piccolo", "lat": 48.1163417, "lng": 11.5805023, "street": "", "housenumber": "", "postcode": "", "hours": "Mo,We-Fr 09:15-16:00; Sa 09:15-15:00; Su 10:30-15:00; Tu off", "cuisine": "italian", "outdoor": false, "wheelchair": "", "wifi": false, "phone": "", "website": ""}, {"id": "6682330093", "name": "Cafe Pinguini", "lat": 48.1322687, "lng": 11.5707202, "street": "", "housenumber": "", "postcode": "", "hours": "Mo-Fr 08:00-18:00; Sa-Su closed", "cuisine": "", "outdoor": true, "wheelchair": "", "wifi": false, "phone": "", "website": ""}, {"id": "391651197", "name": "Cafe Reicherzer", "lat": 48.1538914, "lng": 11.4183285, "street": "Limesstraße", "housenumber": "14", "postcode": "81243", "hours": "Tu-Sa 06:30-16:00; Su 08:00-16:00", "cuisine": "", "outdoor": true, "wheelchair": "limited", "wifi": false, "phone": "+49 89 87139206", "website": ""}, {"id": "1766416528", "name": "Cafe Rusticale", "lat": 48.1811715, "lng": 11.460977, "street": "Eversbuschstraße", "housenumber": "37", "postcode": "80999", "hours": "Mo-Sa 12:00-22:00; Su 12:00-20:00", "cuisine": "burger;coffee_shop;italian", "outdoor": false, "wheelchair": "yes", "wifi": false, "phone": "+498920989905", "website": "https://cafe-rusticale.eatbu.com/"}, {"id": "5803568154", "name": "Cafe Seniorenzentrum", "lat": 48.0858902, "lng": 11.5360741, "street": "", "housenumber": "", "postcode": "", "hours": "Mo-Fr 11:00-17:00; Sa-Su 13:00-17:00", "cuisine": "", "outdoor": false, "wheelchair": "", "wifi": false, "phone": "", "website": ""}, {"id": "448945873", "name": "Cafe Sonnenback", "lat": 48.1125162, "lng": 11.5851154, "street": "", "housenumber": "", "postcode": "", "hours": "Mo-Fr 06:30-19:00; Sa 07:00-18:00; Su,PH 08:00-17:00", "cuisine": "", "outdoor": false, "wheelchair": "no", "wifi": false, "phone": "", "website": ""}, {"id": "13660723403", "name": "Cafe Vinica", "lat": 48.1456001, "lng": 11.5821074, "street": "Schönfeldstraße", "housenumber": "24", "postcode": "", "hours": "", "cuisine": "", "outdoor": false, "wheelchair": "", "wifi": false, "phone": "", "website": ""}, {"id": "13319740901", "name": "Cafe Vintage", "lat": 48.1345661, "lng": 11.5786279, "street": "Frauenstraße", "housenumber": "15", "postcode": "80469", "hours": "Tu-Sa 08:20-20:00; Su 09:00-18:00", "cuisine": "", "outdoor": false, "wheelchair": "", "wifi": false, "phone": "", "website": "https://cafevintagemuenchen.de/"}, {"id": "5091093923", "name": "Cafe Violet", "lat": 48.1129423, "lng": 11.5496587, "street": "", "housenumber": "", "postcode": "", "hours": "Mo-Su 00:00-12:00", "cuisine": "", "outdoor": false, "wheelchair": "", "wifi": false, "phone": "", "website": ""}, {"id": "302372006", "name": "Cafe Wetterstein", "lat": 48.1094063, "lng": 11.5759824, "street": "Wettersteinplatz", "housenumber": "3", "postcode": "", "hours": "Mo-Sa 08:00-18:00; Su,PH 10:00-18:00", "cuisine": "", "outdoor": false, "wheelchair": "limited", "wifi": false, "phone": "+49 89 6929939", "website": "https://cafewetterstein.wixsite.com/cafe-wetterstein/"}, {"id": "577517153", "name": "Cafe am Beethoven Platz", "lat": 48.1333879, "lng": 11.5587693, "street": "Goethestraße", "housenumber": "51", "postcode": "80336", "hours": "Mo-Su 09:00-01:00", "cuisine": "", "outdoor": true, "wheelchair": "limited", "wifi": false, "phone": "", "website": ""}, {"id": "1912968798", "name": "Cafe am Dantepark", "lat": 48.1651731, "lng": 11.5339863, "street": "", "housenumber": "", "postcode": "", "hours": "", "cuisine": "", "outdoor": false, "wheelchair": "limited", "wifi": false, "phone": "", "website": ""}, {"id": "618589319", "name": "Cafe am Salvatorplatz", "lat": 48.1419845, "lng": 11.5754595, "street": "", "housenumber": "", "postcode": "", "hours": "Mo-Th 07:00-17:00; Fr 07:00-16:00", "cuisine": "", "outdoor": true, "wheelchair": "", "wifi": false, "phone": "", "website": ""}, {"id": "552444457", "name": "Cafe am Schloss", "lat": 48.1549396, "lng": 11.5062558, "street": "", "housenumber": "", "postcode": "", "hours": "Tu-Su,PH 09:00-18:00", "cuisine": "", "outdoor": true, "wheelchair": "yes", "wifi": false, "phone": "", "website": ""}, {"id": "12187034377", "name": "Cafe am Sendlinger Tor", "lat": 48.1339354, "lng": 11.5667108, "street": "Sendlinger-Tor-Platz", "housenumber": "10", "postcode": "80336", "hours": "Mo-Fr 06:30-19:00; Sa 07:30-17:00", "cuisine": "", "outdoor": true, "wheelchair": "no", "wifi": false, "phone": "", "website": ""}, {"id": "390928284", "name": "Cafe an der Uni", "lat": 48.1495338, "lng": 11.5811699, "street": "Ludwigstraße", "housenumber": "24", "postcode": "80539", "hours": "Mo-Su 08:00-01:00; PH,Sa,Su 09:00-01:00", "cuisine": "pizza;coffee_shop;regional;burger", "outdoor": true, "wheelchair": "no", "wifi": true, "phone": "", "website": ""}, {"id": "6299448435", "name": "Cafe bei Amca", "lat": 48.1161437, "lng": 11.5910093, "street": "", "housenumber": "", "postcode": "", "hours": "Tu-Su 10:00-22:00", "cuisine": "", "outdoor": false, "wheelchair": "no", "wifi": false, "phone": "", "website": ""}, {"id": "4915514474", "name": "Cafe lucky", "lat": 48.126861, "lng": 11.5578084, "street": "", "housenumber": "", "postcode": "", "hours": "", "cuisine": "", "outdoor": true, "wheelchair": "", "wifi": false, "phone": "", "website": ""}, {"id": "874287512", "name": "Cafe und Bar Schreibwaren am Schloß", "lat": 48.1582014, "lng": 11.5108017, "street": "Südliche Auffahrtsallee", "housenumber": "78", "postcode": "80639", "hours": "Sa,Su 10:00-18:00; Mo-Fr 12:00-18:00", "cuisine": "local", "outdoor": true, "wheelchair": "", "wifi": false, "phone": "+49 89 66663074", "website": "https://schreibwarenamschloss.eatbu.com"}, {"id": "6786384878", "name": "Cafegarten im Schwabinger", "lat": 48.1712293, "lng": 11.5776207, "street": "Kölner Platz", "housenumber": "1", "postcode": "80804", "hours": "Mo-Fr 07:30-16:30; Sa,Su 12:30-16:30", "cuisine": "coffee_shop;sandwich", "outdoor": true, "wheelchair": "", "wifi": false, "phone": "", "website": ""}, {"id": "1364262029", "name": "Cafeteria", "lat": 48.1310344, "lng": 11.6126456, "street": "", "housenumber": "", "postcode": "", "hours": "", "cuisine": "", "outdoor": false, "wheelchair": "", "wifi": false, "phone": "", "website": ""}, {"id": "1677583265", "name": "Cafeteria", "lat": 48.1484468, "lng": 11.5557238, "street": "", "housenumber": "", "postcode": "", "hours": "", "cuisine": "", "outdoor": false, "wheelchair": "", "wifi": false, "phone": "", "website": ""}, {"id": "218609387", "name": "Cafeteria", "lat": 48.1325683, "lng": 11.6139249, "street": "", "housenumber": "", "postcode": "", "hours": "Jun-Sep", "cuisine": "", "outdoor": false, "wheelchair": "yes", "wifi": false, "phone": "", "website": ""}, {"id": "316916033", "name": "Cafetteria Alimentari e Diversi", "lat": 48.120892, "lng": 11.5452714, "street": "Alramstraße", "housenumber": "19", "postcode": "81371", "hours": "Mo,Tu,Th,Fr 08:00-18:00; Sa 10:30-18:00", "cuisine": "", "outdoor": false, "wheelchair": "limited", "wifi": false, "phone": "", "website": ""}, {"id": "418772000", "name": "Caffe Conte", "lat": 48.1586619, "lng": 11.5831118, "street": "Ainmillerstraße", "housenumber": "10", "postcode": "80801", "hours": "Mo-Sa 08:00-18:00", "cuisine": "", "outdoor": true, "wheelchair": "limited", "wifi": false, "phone": "", "website": ""}, {"id": "1813634813", "name": "Caffee Bäckerei MÜLLER", "lat": 48.1484988, "lng": 11.5652914, "street": "", "housenumber": "", "postcode": "", "hours": "Mo-Fr 09:00-22:00, Sa,Su,PH 09:30-22:00", "cuisine": "", "outdoor": true, "wheelchair": "yes", "wifi": false, "phone": "", "website": ""}, {"id": "3495023592", "name": "Caffè Dallucci", "lat": 48.1154873, "lng": 11.5957438, "street": "", "housenumber": "", "postcode": "", "hours": "Mo-Th 08:00-15:30; Fr 08:00-14:30", "cuisine": "", "outdoor": false, "wheelchair": "", "wifi": false, "phone": "", "website": ""}, {"id": "3766190822", "name": "Caffè Leone", "lat": 48.1472178, "lng": 11.5614673, "street": "Augustenstraße", "housenumber": "25", "postcode": "", "hours": "Tu-Fr 09:00-17:00; Sa 11:00-17:00; PH off", "cuisine": "", "outdoor": false, "wheelchair": "yes", "wifi": false, "phone": "", "website": ""}, {"id": "1834207965", "name": "Caffè Ristretto", "lat": 48.1347784, "lng": 11.5413706, "street": "Kazmairstraße", "housenumber": "30", "postcode": "80339", "hours": "Mo-Fr 08:00-20:00, Sa 10:00-18:00", "cuisine": "", "outdoor": false, "wheelchair": "", "wifi": false, "phone": "+49 89 74389403", "website": "http://www.cafferistretto.de"}, {"id": "3027984919", "name": "Caffé Da Me", "lat": 48.1315744, "lng": 11.5813749, "street": "Morassistraße", "housenumber": "26", "postcode": "80469", "hours": "Tu-Fr 08:30-17:00; Sa,Su,PH 09:30-17:00; Mo off", "cuisine": "italian", "outdoor": false, "wheelchair": "limited", "wifi": false, "phone": "+49 89 20073864", "website": "http://www.caffedame.de"}, {"id": "5894822921", "name": "Cafino", "lat": 48.1236985, "lng": 11.6674249, "street": "Truderinger Straße", "housenumber": "277", "postcode": "81825", "hours": "We-Sa 10:00-18:00; Su-Tu,PH off", "cuisine": "bistro;coffee_shop", "outdoor": false, "wheelchair": "yes", "wifi": false, "phone": "", "website": ""}, {"id": "2529189238", "name": "Cafè Rhino", "lat": 48.0969854, "lng": 11.5513681, "street": "", "housenumber": "", "postcode": "", "hours": "", "cuisine": "pizza", "outdoor": true, "wheelchair": "", "wifi": false, "phone": "", "website": ""}, {"id": "318712617", "name": "Café Ada", "lat": 48.1238146, "lng": 11.6127702, "street": "Aschheimer Straße", "housenumber": "12", "postcode": "81671", "hours": "", "cuisine": "", "outdoor": false, "wheelchair": "", "wifi": false, "phone": "", "website": ""}, {"id": "12925955433", "name": "Café Aydos", "lat": 48.1130544, "lng": 11.4898219, "street": "", "housenumber": "", "postcode": "", "hours": "", "cuisine": "", "outdoor": false, "wheelchair": "", "wifi": false, "phone": "", "website": ""}, {"id": "1871486641", "name": "Café Bar Loretta", "lat": 48.1316166, "lng": 11.5680299, "street": "Müllerstraße", "housenumber": "50", "postcode": "80469", "hours": "Mo-Th 08:00-01:00; Fr 08:00-03:00; Sa 09:00-03:00; Su 10:00-19:00", "cuisine": "", "outdoor": true, "wheelchair": "yes", "wifi": false, "phone": "+49 89 23077370", "website": ""}, {"id": "268893509", "name": "Café Bar MBH", "lat": 48.18469, "lng": 11.567814, "street": "", "housenumber": "", "postcode": "", "hours": "", "cuisine": "", "outdoor": false, "wheelchair": "", "wifi": false, "phone": "", "website": ""}, {"id": "3947834847", "name": "Café Bar Pasticceria Paninoteca", "lat": 48.1186637, "lng": 11.5506402, "street": "", "housenumber": "", "postcode": "", "hours": "Mo-Fr 06:00-15:00", "cuisine": "", "outdoor": false, "wheelchair": "limited", "wifi": false, "phone": "", "website": ""}, {"id": "4243416802", "name": "Café Berta", "lat": 48.162443, "lng": 11.5894119, "street": "Haimhauserstraße", "housenumber": "11", "postcode": "80802", "hours": "", "cuisine": "", "outdoor": false, "wheelchair": "", "wifi": false, "phone": "", "website": ""}, {"id": "656295779", "name": "Café Bistro Rendezvous", "lat": 48.1397329, "lng": 11.56678, "street": "Karlsplatz", "housenumber": "5", "postcode": "80335", "hours": "Mo-Sa 11:00-22:00", "cuisine": "", "outdoor": false, "wheelchair": "yes", "wifi": false, "phone": "", "website": ""}, {"id": "4444530377", "name": "Café Blá", "lat": 48.1293214, "lng": 11.5863166, "street": "Lilienstraße", "housenumber": "34", "postcode": "81669", "hours": "Sa,Su,PH 10:00-18:00; Mo-Fr 10:00-18:00", "cuisine": "coffee_shop;scandinavian", "outdoor": true, "wheelchair": "limited", "wifi": false, "phone": "+49 89 12263037", "website": "https://cafebla.de/"}, {"id": "1028706020", "name": "Café Cade", "lat": 48.1302145, "lng": 11.6109183, "street": "Friedenstraße", "housenumber": "36", "postcode": "", "hours": "Mo-Th 08:00-16:00; Fr 08:00-15:00", "cuisine": "", "outdoor": false, "wheelchair": "", "wifi": false, "phone": "", "website": "https://www.instagram.com/cafe_cade_/"}, {"id": "3498934683", "name": "Café Chance", "lat": 48.1405117, "lng": 11.5924326, "street": "Liebigstraße", "housenumber": "26", "postcode": "80538", "hours": "Sa,Su 09:30-17:30; We-Fr 08:00-16:30", "cuisine": "", "outdoor": true, "wheelchair": "no", "wifi": false, "phone": "", "website": ""}, {"id": "2545320017", "name": "Café Dallmayr", "lat": 48.1383202, "lng": 11.5772737, "street": "Dienerstraße", "housenumber": "14-15", "postcode": "80331", "hours": "Mo-Sa 09:30-19:00", "cuisine": "international", "outdoor": false, "wheelchair": "yes", "wifi": false, "phone": "", "website": ""}, {"id": "13679245702", "name": "Café Dotcom", "lat": 48.146294, "lng": 11.5621427, "street": "Brienner Straße", "housenumber": "43", "postcode": "80333", "hours": "Mo-Fr 00:00-24:00; Su 08:00-10:00, 11:00-13:00, 14:00-18:00", "cuisine": "bagel;breakfast", "outdoor": true, "wheelchair": "", "wifi": false, "phone": "+49 1573 4321316", "website": ""}, {"id": "883115925", "name": "Café Drilling", "lat": 48.1161742, "lng": 11.5807512, "street": "Tegernseer Landstraße", "housenumber": "49", "postcode": "", "hours": "Mo-Fr 04:00-19:00; Sa 05:00-16:30; Su,PH 07:00-16:00", "cuisine": "", "outdoor": true, "wheelchair": "no", "wifi": false, "phone": "", "website": ""}, {"id": "291365357", "name": "Café Dukatz", "lat": 48.1394643, "lng": 11.5868064, "street": "Sankt-Anna-Straße", "housenumber": "11", "postcode": "80538", "hours": "Mo-Fr 07:30-19:00; Sa 08:00-19:00; Su 09:30-12:30", "cuisine": "coffee_shop", "outdoor": true, "wheelchair": "yes", "wifi": false, "phone": "+49 89 23032444", "website": "https://dukatz.de/"}, {"id": "5478645429", "name": "Café Erika", "lat": 48.1228997, "lng": 11.5474016, "street": "Senserstraße", "housenumber": "7", "postcode": "81371", "hours": "Mo,Tu,Fr 10:00-18:00; PH 10:00-18:00", "cuisine": "", "outdoor": false, "wheelchair": "no", "wifi": true, "phone": "+49 89 45237138", "website": "https://cafe-erika.de"}, {"id": "5826861106", "name": "Café Exponat Deutsches Museum", "lat": 48.1304654, "lng": 11.5836265, "street": "Museumsinsel", "housenumber": "1", "postcode": "80538", "hours": "Mo-Su 09:00-18:00", "cuisine": "", "outdoor": true, "wheelchair": "limited", "wifi": false, "phone": "+49 89 21383893", "website": "https://www.cafe-exponat.de/"}, {"id": "11090437705", "name": "Café Faber", "lat": 48.1251147, "lng": 11.5806389, "street": "Zeppelinstraße", "housenumber": "5", "postcode": "81541", "hours": "We-Su 10:00-17:00", "cuisine": "breakfast;coffee_shop", "outdoor": false, "wheelchair": "limited", "wifi": false, "phone": "", "website": ""}, {"id": "1701591090", "name": "Café Fausto", "lat": 48.1056668, "lng": 11.566622, "street": "Birkenleiten", "housenumber": "43", "postcode": "81543", "hours": "Mo-Fr 11:00-19:00; Sa 10:00-19:00", "cuisine": "", "outdoor": true, "wheelchair": "yes", "wifi": false, "phone": "+49 89 62231113", "website": ""}, {"id": "1714857609", "name": "Café Fischer", "lat": 48.1123889, "lng": 11.5038314, "street": "Waldfriedhofstraße", "housenumber": "90", "postcode": "81377", "hours": "", "cuisine": "", "outdoor": true, "wheelchair": "yes", "wifi": false, "phone": "+49 89 71066178-0", "website": ""}, {"id": "3324886666", "name": "Café Franca", "lat": 48.1586328, "lng": 11.5666049, "street": "Hiltenspergerstraße", "housenumber": "24", "postcode": "80798", "hours": "Th-Su 10:00-18:00", "cuisine": "coffee_shop;cake", "outdoor": true, "wheelchair": "limited", "wifi": false, "phone": "", "website": ""}, {"id": "13481499802", "name": "Café Fuud", "lat": 48.1615976, "lng": 11.5404235, "street": "Heideckstraße", "housenumber": "14", "postcode": "", "hours": "Fr-Su 10:00-16:00", "cuisine": "", "outdoor": false, "wheelchair": "", "wifi": false, "phone": "", "website": ""}, {"id": "4427242389", "name": "Café Gans am Wasser", "lat": 48.1249334, "lng": 11.5305206, "street": "", "housenumber": "", "postcode": "", "hours": "Jun-Aug Mo-Sa 10:00-00:00; Jun-Aug Su,PH 10:00-22:00; Nov-Dec 10:00-18:00; May,Sep Mo-Sa 10:00-22:00; May,Sep Su,PH 10:00-21:00; Jan-Feb 10:00-18:00; Apr,Oct Mo-Sa 10:00-20:00; Apr,Oct Su,PH 10:00-19:00; Mar 10:00-19:00", "cuisine": "", "outdoor": true, "wheelchair": "limited", "wifi": false, "phone": "", "website": "https://www.gansamwasser.de/"}, {"id": "9551743574", "name": "Café GeQo", "lat": 48.1628989, "lng": 11.6304533, "street": "Maria-Nindl-Platz", "housenumber": "6", "postcode": "81927", "hours": "Sa 14:00-18:00; Tu,We,Fr 09:00-17:00; Th 09:00-21:30", "cuisine": "", "outdoor": true, "wheelchair": "", "wifi": false, "phone": "+49 89 45235599", "website": "https://www.prinzeugenpark.de/quartierszentrale/nachbarschaftscafe.html"}, {"id": "1813636917", "name": "Café Gelateria al Teatro", "lat": 48.1328501, "lng": 11.576308, "street": "Buttermelcherstraße", "housenumber": "2", "postcode": "80469", "hours": "Mo-Su 09:00-20:00", "cuisine": "", "outdoor": false, "wheelchair": "no", "wifi": false, "phone": "", "website": ""}, {"id": "886077754", "name": "Café Glück", "lat": 48.1258955, "lng": 11.5689712, "street": "Palmstraße", "housenumber": "4", "postcode": "80469", "hours": "Tu-Fr 18:00-01:00, Sa,Su 10:00-01:00", "cuisine": "international", "outdoor": false, "wheelchair": "no", "wifi": false, "phone": "", "website": ""}, {"id": "418955835", "name": "Café Grosshadern", "lat": 48.1161227, "lng": 11.47963, "street": "Großhaderner Straße", "housenumber": "6", "postcode": "81375", "hours": "Mo-Fr 06:00-18:00; Sa-Su 07:00-16:00", "cuisine": "bakery;cafe;dessert", "outdoor": false, "wheelchair": "", "wifi": false, "phone": "+49 89 46220600", "website": ""}, {"id": "1482158469", "name": "Café HFF", "lat": 48.1466488, "lng": 11.5692657, "street": "", "housenumber": "", "postcode": "", "hours": "Mo-Th 08:30-16:00; Fr 08:30-15:00", "cuisine": "", "outdoor": false, "wheelchair": "yes", "wifi": false, "phone": "", "website": ""}, {"id": "2714971495", "name": "Café Hanoi", "lat": 48.1173412, "lng": 11.5268459, "street": "Partnachplatz", "housenumber": "9", "postcode": "81373", "hours": "Mo-Fr, Su 11:00-20:00", "cuisine": "asian", "outdoor": false, "wheelchair": "limited", "wifi": false, "phone": "+49 89 72656222", "website": "https://cafe-hanoi.jimdofree.com/"}, {"id": "1406092552", "name": "Café Höflinger", "lat": 48.1550139, "lng": 11.5752204, "street": "Georgenstraße", "housenumber": "41", "postcode": "80799", "hours": "Mo-Sa 06:30-16:00; Su,PH 08:00-14:00", "cuisine": "", "outdoor": true, "wheelchair": "yes", "wifi": true, "phone": "", "website": ""}, {"id": "5421394793", "name": "Café Josefina", "lat": 48.1541832, "lng": 11.5660259, "street": "Augustenstraße", "housenumber": "113", "postcode": "80798", "hours": "Mo-Fr 07:30-19:00; Sa-Su 09:00-19:00", "cuisine": "", "outdoor": true, "wheelchair": "limited", "wifi": false, "phone": "", "website": ""}, {"id": "2967993398", "name": "Café Konditorei Tortenparadies", "lat": 48.1000985, "lng": 11.625771, "street": "Unterhachinger Straße", "housenumber": "24", "postcode": "81737", "hours": "Mo-Fr 07:00-18:00; Sa-Su 08:00-18:00; PH 08:00-18:00", "cuisine": "", "outdoor": true, "wheelchair": "limited", "wifi": false, "phone": "+49 89 62789555", "website": "https://tortenparadies-muenchen.jimdofree.com/"}, {"id": "8750284561", "name": "Café La Perla", "lat": 48.1776703, "lng": 11.4616431, "street": "Eversbuschstraße", "housenumber": "7", "postcode": "80999", "hours": "", "cuisine": "ice_cream;coffee_shop", "outdoor": true, "wheelchair": "", "wifi": false, "phone": "+49 89 20080731", "website": ""}, {"id": "291103853", "name": "Café Lehel", "lat": 48.1410265, "lng": 11.5886975, "street": "Liebigstraße", "housenumber": "10a", "postcode": "80538", "hours": "Mo-Fr 07:00-18:00; Sa-Su 09:00-18:00; PH open", "cuisine": "coffee_shop", "outdoor": true, "wheelchair": "no", "wifi": true, "phone": "", "website": ""}, {"id": "6682341765", "name": "Café Lev", "lat": 48.1435925, "lng": 11.5990935, "street": "Siebertstraße", "housenumber": "2", "postcode": "81675", "hours": "Mo off; Tu 09:30-17:30; We 09:30-17:30; Th 12:00-19:00; Fr 09:30-17:00; Sa 12:00-18:00; Su off", "cuisine": "", "outdoor": true, "wheelchair": "", "wifi": false, "phone": "", "website": ""}, {"id": "3647705693", "name": "Café Limulus", "lat": 48.1600763, "lng": 11.5038578, "street": "", "housenumber": "", "postcode": "", "hours": "Tu-Fr 10:00-17:00; Sa,Su,PH 10:00-18:00", "cuisine": "", "outdoor": false, "wheelchair": "limited", "wifi": false, "phone": "", "website": ""}, {"id": "1084364134", "name": "Café Lozzi", "lat": 48.13159, "lng": 11.5672913, "street": "Pestalozzistraße", "housenumber": "8", "postcode": "80469", "hours": "Mo-Th 11:00-24:00, Fr 11:00-01:00, Sa 10:00-01:00, PH,Su 10:00-20:00", "cuisine": "", "outdoor": true, "wheelchair": "limited", "wifi": false, "phone": "", "website": "https://www.cafelozzi.de/"}, {"id": "301555898", "name": "Café Memminger Platz", "lat": 48.1808822, "lng": 11.5057995, "street": "Memminger Platz", "housenumber": "3", "postcode": "80997", "hours": "Mo-Sa 05:00-20:00; Su 06:00-20:00", "cuisine": "", "outdoor": true, "wheelchair": "", "wifi": false, "phone": "+49 89 92287177", "website": ""}, {"id": "1407960454", "name": "Café Mio", "lat": 48.1421498, "lng": 11.6050202, "street": "Lamontstraße", "housenumber": "22", "postcode": "", "hours": "", "cuisine": "", "outdoor": false, "wheelchair": "", "wifi": false, "phone": "", "website": ""}, {"id": "522196066", "name": "Café Mirin", "lat": 48.1200621, "lng": 11.5735514, "street": "Humboldtstraße", "housenumber": "20", "postcode": "81543", "hours": "Mo-Fr 08:00-18:00; Sa-Su 09:00-18:00", "cuisine": "", "outdoor": false, "wheelchair": "", "wifi": false, "phone": "", "website": ""}, {"id": "1198391629", "name": "Café Miu", "lat": 48.128832, "lng": 11.6000323, "street": "Sedanstraße", "housenumber": "39", "postcode": "81667", "hours": "Mo-Fr 08:30-16:00; Sa 09:00-16:00; Su off", "cuisine": "", "outdoor": true, "wheelchair": "no", "wifi": false, "phone": "+49 89 46131534", "website": ""}, {"id": "12143592002", "name": "Café Moinspatz", "lat": 48.1472906, "lng": 11.5741931, "street": "Türkenstraße", "housenumber": "26", "postcode": "80333", "hours": "Su,Mo off; Tu-Sa 10:00-18:00", "cuisine": "", "outdoor": true, "wheelchair": "", "wifi": false, "phone": "", "website": "https://www.moinspatz.de/"}, {"id": "6853636861", "name": "Café Mokka", "lat": 48.124942, "lng": 11.5523427, "street": "", "housenumber": "", "postcode": "", "hours": "", "cuisine": "", "outdoor": true, "wheelchair": "", "wifi": false, "phone": "", "website": ""}, {"id": "558816267", "name": "Café Münchner Freiheit", "lat": 48.1634327, "lng": 11.5876091, "street": "Münchner Freiheit", "housenumber": "20", "postcode": "80802", "hours": "Mo-Su 07:00-21:00", "cuisine": "", "outdoor": true, "wheelchair": "limited", "wifi": false, "phone": "", "website": ""}, {"id": "1774921837", "name": "Café Nappo", "lat": 48.105527, "lng": 11.5744403, "street": "Säbener Straße", "housenumber": "25", "postcode": "", "hours": "Mo,We-Th 09:30-18:00; Tu off; Fr 09:30-18:30; Sa 10:00-16:00; Su 10:00-14:00", "cuisine": "italian", "outdoor": true, "wheelchair": "yes", "wifi": false, "phone": "", "website": ""}, {"id": "4321542450", "name": "Café Nido", "lat": 48.1324402, "lng": 11.5393514, "street": "Anglerstraße", "housenumber": "25", "postcode": "80339", "hours": "Mo-Fr 07:30-19:00; Sa 08:30-16:00", "cuisine": "", "outdoor": false, "wheelchair": "", "wifi": false, "phone": "", "website": ""}, {"id": "12923811703", "name": "Café Nido", "lat": 48.1324522, "lng": 11.539321, "street": "Anglerstraße", "housenumber": "25", "postcode": "80339", "hours": "Mo-Fr 07:30-19:00; Sa 08:30-16:00; Su,PH off", "cuisine": "", "outdoor": false, "wheelchair": "limited", "wifi": false, "phone": "+49 89 52032772", "website": "https://www.cafenido.de/"}, {"id": "5870708795", "name": "Café Ola ta Kala", "lat": 48.1254053, "lng": 11.5613126, "street": "Kapuzinerstraße", "housenumber": "31", "postcode": "80337", "hours": "", "cuisine": "", "outdoor": false, "wheelchair": "", "wifi": false, "phone": "", "website": ""}, {"id": "13531586106", "name": "Café Ora", "lat": 48.1215573, "lng": 11.5404571, "street": "", "housenumber": "", "postcode": "", "hours": "Mo-Fr 08:00-17:00; Sa 09:00-16:00", "cuisine": "", "outdoor": false, "wheelchair": "", "wifi": false, "phone": "", "website": ""}, {"id": "3509547273", "name": "Café Plus", "lat": 48.1126809, "lng": 11.5933784, "street": "Schlierseestraße", "housenumber": "53", "postcode": "81539", "hours": "Mo-Su 07:00-22:00", "cuisine": "", "outdoor": false, "wheelchair": "", "wifi": false, "phone": "", "website": ""}, {"id": "469223644", "name": "Café Puck", "lat": 48.1494027, "lng": 11.575224, "street": "Türkenstraße", "housenumber": "33", "postcode": "80799", "hours": "Mo-Su 09:00-01:00", "cuisine": "", "outdoor": true, "wheelchair": "no", "wifi": false, "phone": "", "website": ""}, {"id": "13191098101", "name": "Café Reichshof", "lat": 48.1310883, "lng": 11.5997506, "street": "Wörthstraße", "housenumber": "17", "postcode": "", "hours": "Mo 08:00-18:00; Tu-Sa 08:00-22:00; Su,PH 08:00-17:00", "cuisine": "", "outdoor": false, "wheelchair": "", "wifi": false, "phone": "", "website": "https://www.cafe-reichshof.de/"}, {"id": "1845377596", "name": "Café Riviera", "lat": 48.1428976, "lng": 11.64952, "street": "Stefan-George-Ring", "housenumber": "20", "postcode": "81929", "hours": "", "cuisine": "", "outdoor": false, "wheelchair": "", "wifi": false, "phone": "", "website": ""}, {"id": "10200273362", "name": "Café Roma", "lat": 48.1387135, "lng": 11.5841083, "street": "Maximilianstraße", "housenumber": "33", "postcode": "80539", "hours": "", "cuisine": "", "outdoor": false, "wheelchair": "", "wifi": false, "phone": "", "website": ""}, {"id": "5912618540", "name": "Café Romanplatz", "lat": 48.1551969, "lng": 11.5108161, "street": "", "housenumber": "", "postcode": "", "hours": "Mo-Fr 09:00-18:00; PH,Su 10:30-18:00", "cuisine": "", "outdoor": false, "wheelchair": "", "wifi": false, "phone": "", "website": ""}, {"id": "4826906689", "name": "Café Scheidplatz", "lat": 48.1714708, "lng": 11.5737631, "street": "Belgradstraße", "housenumber": "104", "postcode": "80804", "hours": "09:00-23:00", "cuisine": "", "outdoor": true, "wheelchair": "yes", "wifi": false, "phone": "", "website": ""}, {"id": "666750045", "name": "Café Schuntner", "lat": 48.1212463, "lng": 11.5408759, "street": "Plinganserstraße", "housenumber": "10", "postcode": "81369", "hours": "Tu-Su 09:00-17:30", "cuisine": "german", "outdoor": true, "wheelchair": "no", "wifi": false, "phone": "", "website": ""}, {"id": "5134816574", "name": "Café Spatzennest", "lat": 48.1236568, "lng": 11.5936928, "street": "Auerfeldstraße", "housenumber": "15", "postcode": "81541", "hours": "Mo-Fr 09:00-18:00, Th 09:00-23:00", "cuisine": "", "outdoor": false, "wheelchair": "yes", "wifi": false, "phone": "", "website": ""}, {"id": "1714857571", "name": "Café Stenz", "lat": 48.1119845, "lng": 11.5047822, "street": "Waldfriedhofstraße", "housenumber": "105", "postcode": "81377", "hours": "Th 10:00-17:00; Fr-Su 09:00-17:00; PH 09:00-17:00", "cuisine": "", "outdoor": false, "wheelchair": "no", "wifi": false, "phone": "", "website": "https://www.stenz.bayern/stenz-waldfriedhof/"}, {"id": "1351065179", "name": "Café Teigtaschen Bowls", "lat": 48.1157155, "lng": 11.5706368, "street": "Winterstraße", "housenumber": "15", "postcode": "81543", "hours": "closed", "cuisine": "", "outdoor": false, "wheelchair": "no", "wifi": false, "phone": "", "website": ""}, {"id": "10218193245", "name": "Café Violin", "lat": 48.1131533, "lng": 11.576164, "street": "Martin-Luther-Straße", "housenumber": "26", "postcode": "", "hours": "Tu-Fr 08:00-23:30; Sa 09:00-23:30; Su 09:00-17:00", "cuisine": "", "outdoor": false, "wheelchair": "yes", "wifi": false, "phone": "", "website": ""}, {"id": "2335063478", "name": "Café Viva Clara im Amt für Wohnen und Migration", "lat": 48.1277377, "lng": 11.5926988, "street": "", "housenumber": "", "postcode": "", "hours": "", "cuisine": "", "outdoor": false, "wheelchair": "yes", "wifi": false, "phone": "", "website": ""}, {"id": "9516314407", "name": "Café WERK1", "lat": 48.1233749, "lng": 11.6075273, "street": "", "housenumber": "", "postcode": "", "hours": "Mo-Fr 08:30-18:00; Sa, Su, PH off", "cuisine": "", "outdoor": false, "wheelchair": "", "wifi": true, "phone": "+49 89 995299-15", "website": "https://www.werk1.com/das-werk1/werk1-cafe-muenchen/"}, {"id": "266698130", "name": "Café Wiener Platz", "lat": 48.1340866, "lng": 11.5964161, "street": "", "housenumber": "", "postcode": "", "hours": "Mo-Su 08:00-01:00", "cuisine": "", "outdoor": false, "wheelchair": "no", "wifi": false, "phone": "", "website": ""}, {"id": "4510514141", "name": "Café Woerner's", "lat": 48.0937008, "lng": 11.5345459, "street": "Koppstraße", "housenumber": "19", "postcode": "81379", "hours": "Mo-Fr 08:00-17:30; Sa 09:00-18:00; Su,PH 08:00-18:00", "cuisine": "", "outdoor": true, "wheelchair": "yes", "wifi": false, "phone": "+49 89 710 47 577", "website": "https://woerners.de/pages/cafehaus-koppstrasse"}, {"id": "845000594", "name": "Café Wohnwerk", "lat": 48.1499108, "lng": 11.5270706, "street": "Schäringerplatz", "housenumber": "13", "postcode": "80634", "hours": "Tu-Sa 09:30-17:00", "cuisine": "", "outdoor": false, "wheelchair": "yes", "wifi": false, "phone": "", "website": "https://wohnwerk-muenchen.de/"}, {"id": "851585366", "name": "Café Zimt & Trallala", "lat": 48.1213132, "lng": 11.5599935, "street": "Ehrengutstraße", "housenumber": "9", "postcode": "80469", "hours": "Apr 15-Sep 30 Tu-Fr 07:00-22:00; Oct 1-Apr 14 Tu-Fr 07:00-18:30, Apr 15-Sep 30 PH,Sa-Su 08:00-22:00, Oct 1-Apr 14 PH,Sa-Su 08:00-18:30", "cuisine": "breakfast;cake;german;regional", "outdoor": true, "wheelchair": "no", "wifi": false, "phone": "", "website": ""}, {"id": "1140479138", "name": "Café ZimtZicke", "lat": 48.1302528, "lng": 11.6052505, "street": "Elsässer Straße", "housenumber": "25", "postcode": "81667", "hours": "Mo-Fr 10:00-16:00; PH off", "cuisine": "", "outdoor": false, "wheelchair": "no", "wifi": false, "phone": "+49 89 80991463", "website": "https://www.cafe-zimtzicke.de/"}, {"id": "386928370", "name": "Café am Josephsplatz", "lat": 48.1543403, "lng": 11.566486, "street": "Augustenstraße", "housenumber": "112", "postcode": "80798", "hours": "Mo-Sa 09:00-24:00; Su 09:00-18:00", "cuisine": "", "outdoor": false, "wheelchair": "no", "wifi": false, "phone": "", "website": ""}, {"id": "6434138214", "name": "Café bei Aras", "lat": 48.1151433, "lng": 11.5938657, "street": "Werinherstraße", "housenumber": "69", "postcode": "81541", "hours": "", "cuisine": "", "outdoor": true, "wheelchair": "no", "wifi": false, "phone": "", "website": ""}, {"id": "263871091", "name": "Café im Hinterhof", "lat": 48.1295684, "lng": 11.5994249, "street": "Sedanstraße", "housenumber": "29", "postcode": "81667", "hours": "Mo-Sa 08:30-20:00; Su 09:00-20:00", "cuisine": "german;breakfast;cake", "outdoor": true, "wheelchair": "limited", "wifi": false, "phone": "+49 89 448 99 64", "website": "https://hinterhofcafe.jimdofree.com/"}, {"id": "390320162", "name": "Café in der Glyptothek", "lat": 48.1467744, "lng": 11.5659567, "street": "", "housenumber": "", "postcode": "", "hours": "Tu-We 10:00-16:30; Th 10:00-19:30; Fr-Su 10:00-16:30", "cuisine": "", "outdoor": false, "wheelchair": "no", "wifi": false, "phone": "", "website": ""}, {"id": "1813650630", "name": "Café la Maison", "lat": 48.1285047, "lng": 11.5949654, "street": "", "housenumber": "", "postcode": "", "hours": "Tu-Fr 08:00-18:30; Sa-Su 09:00-18:30", "cuisine": "", "outdoor": true, "wheelchair": "no", "wifi": false, "phone": "", "website": "http://www.cafe-maison.de"}, {"id": "2255315499", "name": "Café zur Mauth", "lat": 48.1384877, "lng": 11.5707182, "street": "", "housenumber": "", "postcode": "", "hours": "Mo-Fr 07:00-20:00; Sa 08:00-20:00; Su,PH 09:00-18:00", "cuisine": "", "outdoor": true, "wheelchair": "yes", "wifi": false, "phone": "", "website": ""}, {"id": "4604516589", "name": "Café überm Marienplatz", "lat": 48.137164, "lng": 11.5744181, "street": "", "housenumber": "", "postcode": "", "hours": "Mo-Sa 09:00-22:00", "cuisine": "", "outdoor": false, "wheelchair": "yes", "wifi": false, "phone": "", "website": ""}, {"id": "3242200264", "name": "Caféhaus Griesbeck", "lat": 48.1504924, "lng": 11.565963, "street": "", "housenumber": "", "postcode": "", "hours": "Mo-Fr 07:00-19:00; Sa,Su,PH 08:00-19:00", "cuisine": "", "outdoor": true, "wheelchair": "no", "wifi": false, "phone": "", "website": ""}, {"id": "3586155593", "name": "Caféteria", "lat": 48.1737359, "lng": 11.5752987, "street": "", "housenumber": "", "postcode": "", "hours": "", "cuisine": "", "outdoor": false, "wheelchair": "", "wifi": false, "phone": "", "website": ""}, {"id": "8401640818", "name": "Cafézauber", "lat": 48.1397661, "lng": 11.6098603, "street": "Zaubzerstraße", "housenumber": "11", "postcode": "81677", "hours": "Mo-Sa 07:00-20:00; Su 08:00-15:00", "cuisine": "", "outdoor": false, "wheelchair": "", "wifi": false, "phone": "", "website": ""}, {"id": "12053896195", "name": "Caf‘e Distel", "lat": 48.1087634, "lng": 11.535501, "street": "", "housenumber": "", "postcode": "", "hours": "Mo-Fr 06:30-20:00; Sa,Su 08:00-20:00", "cuisine": "", "outdoor": true, "wheelchair": "no", "wifi": false, "phone": "", "website": ""}, {"id": "4381075400", "name": "California Bean", "lat": 48.142829, "lng": 11.560334, "street": "Dachauer Straße", "housenumber": "12", "postcode": "80335", "hours": "Mo-Su 06:30-16:00", "cuisine": "american;coffee_shop", "outdoor": false, "wheelchair": "yes", "wifi": false, "phone": "", "website": ""}, {"id": "3849682157", "name": "Calima - Specialty Coffee", "lat": 48.1217404, "lng": 11.5347893, "street": "Nestroystraße", "housenumber": "2", "postcode": "81373", "hours": "Tu-Fr 08:00-17:00; Sa-Su 09:00-17:00", "cuisine": "coffee_shop", "outdoor": true, "wheelchair": "no", "wifi": false, "phone": "", "website": ""}, {"id": "12647480353", "name": "Caos", "lat": 48.1413175, "lng": 11.5838122, "street": "Christophstraße", "housenumber": "3", "postcode": "80538", "hours": "", "cuisine": "", "outdoor": false, "wheelchair": "", "wifi": false, "phone": "", "website": ""}, {"id": "2623133052", "name": "CappoSecco", "lat": 48.1197827, "lng": 11.4918777, "street": "Stiftsbogen", "housenumber": "43", "postcode": "81375", "hours": "", "cuisine": "coffee_shop", "outdoor": false, "wheelchair": "yes", "wifi": false, "phone": "", "website": ""}, {"id": "2335083096", "name": "Carlotta", "lat": 48.1300657, "lng": 11.5674837, "street": "Holzstraße", "housenumber": "18", "postcode": "80469", "hours": "Mo,Th-Su 10:00-16:00; Tu-We off", "cuisine": "", "outdoor": false, "wheelchair": "", "wifi": false, "phone": "", "website": ""}, {"id": "597822549", "name": "Carpe Diem", "lat": 48.1254995, "lng": 11.5403445, "street": "Pfeuferstraße", "housenumber": "14", "postcode": "81373", "hours": "Mo-Sa 10:00-05:00", "cuisine": "", "outdoor": false, "wheelchair": "limited", "wifi": false, "phone": "", "website": ""}, {"id": "2487367712", "name": "Casalingo", "lat": 48.1343563, "lng": 11.5733809, "street": "Sebastiansplatz", "housenumber": "12", "postcode": "80331", "hours": "Mo-Sa 11:00-22:00; Su,PH OFF", "cuisine": "italian", "outdoor": false, "wheelchair": "limited", "wifi": false, "phone": "", "website": ""}, {"id": "571393846", "name": "Cellino Cafè", "lat": 48.2140281, "lng": 11.5400535, "street": "", "housenumber": "", "postcode": "80995", "hours": "Mo-Sa 11:00-20:00; PH,Su 12:00-20:00", "cuisine": "", "outdoor": true, "wheelchair": "yes", "wifi": false, "phone": "", "website": ""}, {"id": "6003593057", "name": "Centro", "lat": 48.1255749, "lng": 11.5790982, "street": "", "housenumber": "", "postcode": "", "hours": "Mo-Fr 08:30-15:00", "cuisine": "pastry", "outdoor": true, "wheelchair": "no", "wifi": false, "phone": "", "website": ""}, {"id": "2299689274", "name": "Che Follia", "lat": 48.121552, "lng": 11.6704157, "street": "Truderinger Straße", "housenumber": "306a", "postcode": "81825", "hours": "Tu-Sa 08:00-18:00; Su 10:00-18:00", "cuisine": "italian", "outdoor": false, "wheelchair": "yes", "wifi": false, "phone": "+49 89 20982810", "website": "https://www.che-follia.de/"}, {"id": "2335300018", "name": "Chez Fritz", "lat": 48.1321513, "lng": 11.5944154, "street": "Preysingstraße", "housenumber": "20", "postcode": "81667", "hours": "Tu-Sa 12:00-14:00, 17:30-01:00; Su,Mo off", "cuisine": "french", "outdoor": true, "wheelchair": "no", "wifi": false, "phone": "+49 89 4487676", "website": "https://www.chezfritz.de/"}, {"id": "4456951470", "name": "Chicco", "lat": 48.1954893, "lng": 11.609589, "street": "", "housenumber": "", "postcode": "", "hours": "", "cuisine": "", "outdoor": true, "wheelchair": "", "wifi": false, "phone": "", "website": ""}, {"id": "7888187228", "name": "Chicco", "lat": 48.1895062, "lng": 11.5704355, "street": "", "housenumber": "", "postcode": "", "hours": "", "cuisine": "", "outdoor": false, "wheelchair": "", "wifi": false, "phone": "", "website": ""}, {"id": "1787145076", "name": "Chicco di Caffè", "lat": 48.1736829, "lng": 11.5323028, "street": "Agnes-Pockels-Bogen", "housenumber": "1", "postcode": "80992", "hours": "Mo-Th 08:30-14:00; PH closed", "cuisine": "", "outdoor": true, "wheelchair": "yes", "wifi": false, "phone": "", "website": ""}, {"id": "5126854087", "name": "ChocoLab", "lat": 48.1239658, "lng": 11.5671346, "street": "Baldestraße", "housenumber": "21", "postcode": "80469", "hours": "Mo-Fr 09:00-18:00; PH,Sa,Su 09:00-20:00", "cuisine": "", "outdoor": true, "wheelchair": "yes", "wifi": false, "phone": "", "website": ""}, {"id": "2798929939", "name": "Chocolaterie Beluga", "lat": 48.1358132, "lng": 11.5757709, "street": "Viktualienmarkt", "housenumber": "6", "postcode": "80331", "hours": "Mo-Sa 10:00-21:00; Su,PH 12:00-20:00", "cuisine": "", "outdoor": true, "wheelchair": "yes", "wifi": false, "phone": "", "website": "https://chocolateriebeluga.de"}, {"id": "266698102", "name": "Chocolatte", "lat": 48.1321263, "lng": 11.5981203, "street": "", "housenumber": "", "postcode": "", "hours": "Mo-Sa 07:00-18:00, Su,PH 08:00-18:00", "cuisine": "", "outdoor": true, "wheelchair": "limited", "wifi": false, "phone": "", "website": ""}, {"id": "5578199087", "name": "Ciao Amore", "lat": 48.1555547, "lng": 11.5618172, "street": "Schleißheimer Straße", "housenumber": "96", "postcode": "80797", "hours": "Tu-Su 08:00-18:00", "cuisine": "cake", "outdoor": true, "wheelchair": "no", "wifi": false, "phone": "+49 176 61974519", "website": ""}, {"id": "4318767535", "name": "Classic Café", "lat": 48.1863204, "lng": 11.5501988, "street": "Moosacher Straße", "housenumber": "66", "postcode": "80809", "hours": "Mo-Th 09:00-17:00; Fr 09:00-15:00; Sa,Su,PH closed", "cuisine": "", "outdoor": false, "wheelchair": "", "wifi": false, "phone": "", "website": "https://feinkost-kaefer.de/pages/bmwgroupclassic"}, {"id": "5649152081", "name": "Claude & Julien", "lat": 48.1301645, "lng": 11.6052497, "street": "", "housenumber": "", "postcode": "", "hours": "Mo-Sa 07:00-15:00; Su 08:00-12:00", "cuisine": "french", "outdoor": false, "wheelchair": "no", "wifi": true, "phone": "", "website": ""}, {"id": "5427398483", "name": "Clemens", "lat": 48.1639409, "lng": 11.5715534, "street": "Clemensstraße", "housenumber": "84", "postcode": "80796", "hours": "Mo-Fr 08:00-20:00; Sa-Su 09:00-20:00", "cuisine": "", "outdoor": false, "wheelchair": "limited", "wifi": false, "phone": "", "website": ""}, {"id": "433732740", "name": "CoCo Fresh Tea & Juice", "lat": 48.1516632, "lng": 11.5738643, "street": "Barer Straße", "housenumber": "68", "postcode": "80799", "hours": "Mo-Th 11:00-01:00; Fr 11:00-02:00; Sa 17:00-02:00; Su 17:00-00:00", "cuisine": "bubble_tea", "outdoor": true, "wheelchair": "limited", "wifi": false, "phone": "", "website": ""}, {"id": "1337853871", "name": "Coffee Box", "lat": 48.1337443, "lng": 11.5964563, "street": "", "housenumber": "", "postcode": "", "hours": "Tu-Fr 08:30-17:00; Sa 09:00-17:00; Su,Mo off", "cuisine": "", "outdoor": false, "wheelchair": "", "wifi": false, "phone": "", "website": ""}, {"id": "1407213133", "name": "Coffee Break", "lat": 48.1538275, "lng": 11.5849149, "street": "", "housenumber": "", "postcode": "", "hours": "Mo-Fr 08:00-18:00; Sa 08:00-14:00", "cuisine": "", "outdoor": true, "wheelchair": "yes", "wifi": false, "phone": "", "website": ""}, {"id": "315972795", "name": "Coffee Fellows", "lat": 48.1601028, "lng": 11.5860831, "street": "Leopoldstraße", "housenumber": "70", "postcode": "80802", "hours": "Mo-Th 07:00-22:00; Fr 07:00-23:00; Sa 08:00-23:00; Su 08:00-22:00", "cuisine": "coffee_shop", "outdoor": true, "wheelchair": "limited", "wifi": true, "phone": "", "website": ""}, {"id": "447786276", "name": "Coffee Fellows", "lat": 48.1356194, "lng": 11.5810691, "street": "Tal", "housenumber": "33", "postcode": "80331", "hours": "Su,PH 08:30-20:00; Mo-Fr 08:00-20:00; Sa 08:30-20:00", "cuisine": "coffee_shop", "outdoor": true, "wheelchair": "limited", "wifi": true, "phone": "+49 89 24269986", "website": "https://www.coffee-fellows.com/locations/muenchen-tal"}, {"id": "2281221142", "name": "Coffee Fellows", "lat": 48.1391502, "lng": 11.5633804, "street": "Bayerstraße", "housenumber": "7", "postcode": "80335", "hours": "Mo-Sa 07:30-22:00; Su 08:30-21:00", "cuisine": "coffee_shop", "outdoor": true, "wheelchair": "yes", "wifi": true, "phone": "+49 89 54348988", "website": "https://www.coffee-fellows.com/"}, {"id": "4217575642", "name": "Coffee Fellows", "lat": 48.1372795, "lng": 11.5611616, "street": "Schillerstraße", "housenumber": "17", "postcode": "80336", "hours": "Mo-Fr 07:00-20:30; PH,Sa,Su 07:00-21:00", "cuisine": "coffee_shop", "outdoor": true, "wheelchair": "no", "wifi": false, "phone": "+49 89 59978955", "website": "https://www.coffee-fellows.com/locations/muenchen-schillerstrasse"}, {"id": "4814368393", "name": "Coffee Fellows", "lat": 48.1389268, "lng": 11.4113738, "street": "Clarita-Bernhard-Straße", "housenumber": "8", "postcode": "81249", "hours": "Mo-Fr 08:30-16:00; Sa,Su,PH off", "cuisine": "coffee_shop", "outdoor": false, "wheelchair": "", "wifi": false, "phone": "+49 89 89356250", "website": "https://www.coffee-fellows.com/locations/muenchen-freiham"}, {"id": "11353547243", "name": "Coffee Fellows", "lat": 48.1375276, "lng": 11.5611537, "street": "", "housenumber": "", "postcode": "", "hours": "", "cuisine": "coffee_shop", "outdoor": false, "wheelchair": "", "wifi": false, "phone": "", "website": ""}, {"id": "279778148", "name": "Coffee Fellows", "lat": 48.128294, "lng": 11.6048359, "street": "", "housenumber": "", "postcode": "", "hours": "Mo-Su,PH 07:00-20:00", "cuisine": "coffee_shop", "outdoor": false, "wheelchair": "limited", "wifi": true, "phone": "", "website": "https://coffee-fellows.com/locations/muenchen-ostbahnhof/"}, {"id": "5745536622", "name": "Coffee Lulu", "lat": 48.1613451, "lng": 11.574686, "street": "Belgradstraße", "housenumber": "9", "postcode": "80796", "hours": "", "cuisine": "", "outdoor": false, "wheelchair": "", "wifi": false, "phone": "", "website": ""}, {"id": "12684827601", "name": "Coffee Lunch", "lat": 48.1280015, "lng": 11.5555472, "street": "", "housenumber": "", "postcode": "", "hours": "", "cuisine": "", "outdoor": false, "wheelchair": "", "wifi": false, "phone": "", "website": ""}, {"id": "3611239112", "name": "Coffee Station", "lat": 48.0895454, "lng": 11.6442299, "street": "", "housenumber": "", "postcode": "", "hours": "Mo-Fr 05:30-20:00; Sa 06:30-16:00", "cuisine": "", "outdoor": false, "wheelchair": "yes", "wifi": false, "phone": "", "website": ""}, {"id": "5067269322", "name": "Coffee Twins", "lat": 48.1210915, "lng": 11.5607481, "street": "Ehrengutstraße", "housenumber": "18", "postcode": "80469", "hours": "Mo,Th-Fr 08:00-17:00; Tu-We 08:00-16:00; Sa 09:00-16:00", "cuisine": "", "outdoor": true, "wheelchair": "", "wifi": false, "phone": "", "website": ""}, {"id": "8790211897", "name": "Coffreez", "lat": 48.1018574, "lng": 11.6454237, "street": "", "housenumber": "", "postcode": "", "hours": "Mo-Sa 09:30-20:00", "cuisine": "coffee_shop", "outdoor": false, "wheelchair": "yes", "wifi": false, "phone": "", "website": ""}, {"id": "9253041473", "name": "Cole & Porter", "lat": 48.1360641, "lng": 11.571457, "street": "Sendlinger Straße", "housenumber": "10", "postcode": "80331", "hours": "Mo-Sa 10:00-01:00", "cuisine": "", "outdoor": true, "wheelchair": "yes", "wifi": false, "phone": "+49 89 81893854", "website": "https://www.coleandporter.de/"}, {"id": "2335092405", "name": "Conditorei Mische", "lat": 48.1277971, "lng": 11.5757767, "street": "Auenstraße", "housenumber": "2a", "postcode": "80469", "hours": "We-Sa 09:30-18:00; Su,PH 10:00-18:00", "cuisine": "", "outdoor": false, "wheelchair": "no", "wifi": false, "phone": "", "website": ""}, {"id": "4217521094", "name": "Conditorei und Café Kreutzkamm", "lat": 48.1395715, "lng": 11.5753066, "street": "Maffeistraße", "housenumber": "4", "postcode": "80333", "hours": "Mo-Fr 08:00-18:00; Sa 10:00-18:00", "cuisine": "coffee_shop;cake;pastry;tea;ice_cream", "outdoor": true, "wheelchair": "limited", "wifi": false, "phone": "+49 89 29 32 77", "website": "https://kreutzkamm.de/unsere-cafes/cafe-maffeistrasse-muenchen/"}, {"id": "4232919324", "name": "Conditorei und Café Kreutzkamm", "lat": 48.1406672, "lng": 11.5693884, "street": "Pacellistraße", "housenumber": "5", "postcode": "80333", "hours": "Mo-Fr 08:00-18:00; Sa 10:00-18:00", "cuisine": "coffee_shop;cake;pastry;tea;ice_cream;sandwich;german", "outdoor": true, "wheelchair": "limited", "wifi": false, "phone": "+49 89 22880300", "website": "https://kreutzkamm.de/unsere-cafes/cafe-pacellistrasse-muenchen/"}, {"id": "12422257167", "name": "Conviva am Ostfriedhof", "lat": 48.1191933, "lng": 11.5951979, "street": "", "housenumber": "", "postcode": "", "hours": "Mo-Fr 08:00-17:00", "cuisine": "", "outdoor": false, "wheelchair": "", "wifi": false, "phone": "", "website": ""}, {"id": "4275500492", "name": "Cooper's", "lat": 48.1778923, "lng": 11.556012, "street": "", "housenumber": "", "postcode": "", "hours": "Mo-Sa 07:30-19:00; Su 09:00-19:00", "cuisine": "", "outdoor": false, "wheelchair": "yes", "wifi": true, "phone": "", "website": "https://feinkost-kaefer.de/pages/bmwwelt"}, {"id": "1159760696", "name": "Cotidiano", "lat": 48.1320881, "lng": 11.5757135, "street": "Gärtnerplatz", "housenumber": "6", "postcode": "80469", "hours": "Mo-Th 07:30-22:00; Fr,Sa 07:30-23:00; Su 07:30-21:00", "cuisine": "", "outdoor": true, "wheelchair": "limited", "wifi": false, "phone": "+49 89 242078610", "website": ""}, {"id": "12698696637", "name": "Cotidiano", "lat": 48.1477141, "lng": 11.5602908, "street": "", "housenumber": "", "postcode": "", "hours": "Mo-Fr 09:00-22:00; Sa 08:30-22:00; Su 08:30-20:00", "cuisine": "", "outdoor": false, "wheelchair": "", "wifi": false, "phone": "", "website": "https://www.cotidiano.de/muenchen-stiglmaierplatz/"}, {"id": "916461974", "name": "Coucou Food Market", "lat": 48.1294826, "lng": 11.5682066, "street": "Holzstraße", "housenumber": "21", "postcode": "80469", "hours": "Mo-Fr 07:30-16:30; Sa-Su 08:00-16:30", "cuisine": "", "outdoor": false, "wheelchair": "limited", "wifi": false, "phone": "+49 89 90186959", "website": "https://coucou-food.de/"}, {"id": "2959959996", "name": "Coucou Food Market", "lat": 48.1343036, "lng": 11.5724741, "street": "Sankt-Jakobs-Platz", "housenumber": "16", "postcode": "80331", "hours": "Tu-Su 10:00-18:00", "cuisine": "", "outdoor": false, "wheelchair": "yes", "wifi": true, "phone": "", "website": ""}, {"id": "620898288", "name": "Covolino", "lat": 48.111271, "lng": 11.5337563, "street": "", "housenumber": "", "postcode": "", "hours": "Mo-Fr 06:00-17:00", "cuisine": "", "outdoor": true, "wheelchair": "yes", "wifi": false, "phone": "", "website": ""}, {"id": "649022019", "name": "Cremagelato da Giacomo", "lat": 48.116102, "lng": 11.5246938, "street": "", "housenumber": "", "postcode": "", "hours": "Tu-Su,PH 11:00-21:00", "cuisine": "ice_cream", "outdoor": false, "wheelchair": "yes", "wifi": false, "phone": "", "website": ""}, {"id": "10099124158", "name": "Creme Cafe Eis", "lat": 48.1193378, "lng": 11.6102149, "street": "Karl-Preis-Platz", "housenumber": "4", "postcode": "81671", "hours": "Tu-Su,PH 09:30-18:30; Mo off", "cuisine": "ice_cream", "outdoor": true, "wheelchair": "", "wifi": false, "phone": "", "website": ""}, {"id": "4946017125", "name": "Crème", "lat": 48.1300629, "lng": 11.5756569, "street": "Reichenbachstraße", "housenumber": "24", "postcode": "80469", "hours": "Mo-Fr 07:30-15:00, Fr 07:30-07:00, Sa-Su 08:00-17:00", "cuisine": "ice_cream;pastry", "outdoor": false, "wheelchair": "no", "wifi": false, "phone": "", "website": ""}, {"id": "1813637462", "name": "Crêperie Bernard et Bernard", "lat": 48.133745, "lng": 11.5948617, "street": "Innere Wiener Straße", "housenumber": "32", "postcode": "81667", "hours": "Tu-Sa 17:00-23:30", "cuisine": "crepe;french", "outdoor": false, "wheelchair": "no", "wifi": false, "phone": "+49 89 4801173", "website": "https://www.creperie-bernard.de/"}, {"id": "5646078997", "name": "Cup&Cozy", "lat": 48.1235627, "lng": 11.5469327, "street": "", "housenumber": "", "postcode": "", "hours": "Mo-Su 09:00-18:00", "cuisine": "", "outdoor": false, "wheelchair": "", "wifi": false, "phone": "", "website": ""}, {"id": "469640307", "name": "Cupital No3", "lat": 48.136224, "lng": 11.5978236, "street": "", "housenumber": "", "postcode": "", "hours": "Mo-Th 08:00-18:00; Fr 08:00-20:00; Sa 09:00-17:00; Su off", "cuisine": "", "outdoor": true, "wheelchair": "no", "wifi": false, "phone": "+49 89 24597151", "website": "https://www.cupitalno3.de"}, {"id": "1788287345", "name": "Da Battista", "lat": 48.0992102, "lng": 11.5191778, "street": "Boschetsrieder Straße", "housenumber": "118", "postcode": "81379", "hours": "Mo-Th 10:30-14:00, 16:30-22:30; Fr-Sa 10:30-14:00, 16:30-02:00; Su 10:30-14:00, 16:30-23:00", "cuisine": "", "outdoor": false, "wheelchair": "", "wifi": false, "phone": "", "website": ""}, {"id": "447786261", "name": "Daily Matcha", "lat": 48.1361744, "lng": 11.5758871, "street": "Petersplatz", "housenumber": "9", "postcode": "80331", "hours": "", "cuisine": "ice_cream", "outdoor": true, "wheelchair": "no", "wifi": false, "phone": "", "website": ""}, {"id": "4452947672", "name": "Daily Matcha", "lat": 48.1454328, "lng": 11.5603596, "street": "Augustenstraße", "housenumber": "5", "postcode": "80333", "hours": "", "cuisine": "", "outdoor": false, "wheelchair": "", "wifi": false, "phone": "", "website": ""}, {"id": "12250382813", "name": "Daily Matcha", "lat": 48.1540654, "lng": 11.5834544, "street": "Leopoldstraße", "housenumber": "20", "postcode": "80802", "hours": "Mo-Fr 09:00-20:00; Sa-Su 10:00-20:00", "cuisine": "coffee_shop;tea;pastry", "outdoor": true, "wheelchair": "", "wifi": false, "phone": "", "website": "https://dailymatcha.de/"}, {"id": "6779297277", "name": "Daily Snacks", "lat": 48.1078396, "lng": 11.5997465, "street": "Pfälzer-Wald-Straße", "housenumber": "73", "postcode": "81539", "hours": "", "cuisine": "", "outdoor": true, "wheelchair": "", "wifi": false, "phone": "", "website": ""}, {"id": "9643237948", "name": "Dalucci", "lat": 48.1285003, "lng": 11.6132285, "street": "", "housenumber": "", "postcode": "", "hours": "Mo-Th 07:00-17:00; Fr 07:00-16:00", "cuisine": "", "outdoor": true, "wheelchair": "", "wifi": false, "phone": "", "website": ""}, {"id": "3633366588", "name": "Damaskus Café", "lat": 48.1051342, "lng": 11.593254, "street": "", "housenumber": "", "postcode": "", "hours": "Sa,Su 08:00-18:00; Mo-Fr 07:00-18:00", "cuisine": "", "outdoor": false, "wheelchair": "", "wifi": false, "phone": "", "website": ""}, {"id": "667076584", "name": "Dankl café & deli", "lat": 48.1174312, "lng": 11.5468069, "street": "Danklstraße", "housenumber": "32", "postcode": "81371", "hours": "Su-Th 09:00-18:00; Fr-Sa 09:00-20:00", "cuisine": "cafe", "outdoor": true, "wheelchair": "limited", "wifi": false, "phone": "+49 89 92580063", "website": "https://cafedankl.de/"}, {"id": "11281721444", "name": "Dapkies", "lat": 48.131264, "lng": 11.567506, "street": "Pestalozzistraße", "housenumber": "7", "postcode": "80469", "hours": "Tu-Fr 13:00-19:00; Sa-Su 12:00-19:00; PH closed", "cuisine": "", "outdoor": true, "wheelchair": "limited", "wifi": false, "phone": "+49 89 23542216", "website": "https://www.dapkies.de/"}, {"id": "13517909401", "name": "Das Café am Rande der Stadt", "lat": 48.1408508, "lng": 11.4878766, "street": "Willibaldstraße", "housenumber": "20", "postcode": "80689", "hours": "We-Mo 09:00-18:00", "cuisine": "", "outdoor": false, "wheelchair": "", "wifi": false, "phone": "+49 89 58908830", "website": "https://dascafeamrandederstadt.de/"}, {"id": "1788317239", "name": "Das Florentiner Backhaus", "lat": 48.1604124, "lng": 11.5730417, "street": "Isabellastraße", "housenumber": "49", "postcode": "80796", "hours": "Mo-Fr 06:30-18:00; Sa 07:30-18:00; Su,PH 08:00-18:00", "cuisine": "cake", "outdoor": true, "wheelchair": "limited", "wifi": false, "phone": "", "website": ""}, {"id": "503603679", "name": "Das Maria", "lat": 48.1263657, "lng": 11.5701392, "street": "Klenzestraße", "housenumber": "97", "postcode": "80469", "hours": "Mo-Su 09:00-23:00", "cuisine": "regional", "outdoor": false, "wheelchair": "no", "wifi": false, "phone": "", "website": ""}, {"id": "13208573471", "name": "Das Vierundsiebzig", "lat": 48.1223284, "lng": 11.4898951, "street": "Stiftsbogen", "housenumber": "74", "postcode": "", "hours": "", "cuisine": "", "outdoor": false, "wheelchair": "", "wifi": false, "phone": "", "website": ""}, {"id": "976966593", "name": "Deli Star", "lat": 48.1488434, "lng": 11.577636, "street": "Amalienstraße", "housenumber": "40", "postcode": "80799", "hours": "Mo-Fr 07:30-19:00; Sa,Su, PH 09:00-17:00", "cuisine": "", "outdoor": false, "wheelchair": "no", "wifi": false, "phone": "", "website": ""}, {"id": "4466557160", "name": "Deli Star", "lat": 48.149966, "lng": 11.5838552, "street": "Kaulbachstraße", "housenumber": "41", "postcode": "80539", "hours": "Mo-Su,PH 08:00-18:00", "cuisine": "", "outdoor": false, "wheelchair": "limited", "wifi": true, "phone": "", "website": ""}, {"id": "1165928028", "name": "Delikat Genussmomente am Dorfbach", "lat": 48.1021577, "lng": 11.6301978, "street": "Schmidbauerstraße", "housenumber": "42", "postcode": "81737", "hours": "Tu-Su 09:00-17:00", "cuisine": "turkish", "outdoor": true, "wheelchair": "yes", "wifi": false, "phone": "+49 89 97391665", "website": ""}, {"id": "11107599001", "name": "Der Die Das", "lat": 48.1547211, "lng": 11.5660644, "street": "Görresstraße", "housenumber": "9", "postcode": "80798", "hours": "Mo-Fr 08:00-14:30; Sa 08:30-15:00", "cuisine": "", "outdoor": false, "wheelchair": "limited", "wifi": false, "phone": "", "website": ""}, {"id": "268137236", "name": "Detterbeck", "lat": 48.1394705, "lng": 11.5004093, "street": "", "housenumber": "", "postcode": "", "hours": "PH,Tu-Su 10:00-17:00", "cuisine": "ice_cream;coffee_shop;cake", "outdoor": false, "wheelchair": "limited", "wifi": false, "phone": "", "website": ""}, {"id": "1781709778", "name": "DiNatale", "lat": 48.1501642, "lng": 11.5830774, "street": "Veterinärstraße", "housenumber": "4", "postcode": "80539", "hours": "Mo-Fr 07:00-18:00; Sa-Su 08:00-18:00", "cuisine": "", "outdoor": true, "wheelchair": "no", "wifi": false, "phone": "", "website": ""}, {"id": "5768852494", "name": "DiNatale", "lat": 48.1505554, "lng": 11.578435, "street": "Amalienstraße", "housenumber": "71", "postcode": "80799", "hours": "Mo-Fr 08:00-18:00; Sa 08:00-16:00; Su,PH off", "cuisine": "", "outdoor": false, "wheelchair": "no", "wifi": false, "phone": "", "website": ""}, {"id": "1788320027", "name": "Diatonic Kaffeeladen", "lat": 48.1603821, "lng": 11.573416, "street": "Hohenzollernstraße", "housenumber": "48", "postcode": "80796", "hours": "Tu-Fr 07:15-14:30; Sa 09:15-15:30", "cuisine": "", "outdoor": false, "wheelchair": "no", "wifi": false, "phone": "", "website": ""}, {"id": "302753353", "name": "Die Cibos", "lat": 48.1443541, "lng": 11.5441297, "street": "", "housenumber": "", "postcode": "", "hours": "Mo-Fr 06:30-18:00, Sa 07:00-13:00", "cuisine": "", "outdoor": true, "wheelchair": "yes", "wifi": false, "phone": "", "website": ""}, {"id": "3232812698", "name": "Die Kuchenmeisterei", "lat": 48.1401258, "lng": 11.4959542, "street": "Agnes-Bernauer-Straße", "housenumber": "122", "postcode": "80687", "hours": "Tu- Sa 09:00-16:30; Su 10:30-16:30", "cuisine": "", "outdoor": true, "wheelchair": "no", "wifi": false, "phone": "+49 89 565866", "website": "https://www.diekuchenmeisterei.de/"}, {"id": "3240816897", "name": "Die Kuchenwerkstatt", "lat": 48.1629107, "lng": 11.5722799, "street": "Herzogstraße", "housenumber": "84", "postcode": "80796", "hours": "Tu-Sa 12:00-20:00; Su,Mo,PH off", "cuisine": "coffee;cake;confectionery", "outdoor": false, "wheelchair": "yes", "wifi": false, "phone": "", "website": ""}, {"id": "793849345", "name": "Die Leckerei", "lat": 48.1329448, "lng": 11.539441, "street": "Sandtnerstraße", "housenumber": "1", "postcode": "80339", "hours": "Mo-Fr 11:00-18:00+; Sa,Su,PH 12:00-18:00+; \"bei schönem Wetter bis 20:00\"", "cuisine": "ice_cream", "outdoor": false, "wheelchair": "limited", "wifi": false, "phone": "", "website": ""}, {"id": "8926006080", "name": "Die Mercerie", "lat": 48.1507007, "lng": 11.5437934, "street": "Nymphenburger Straße", "housenumber": "96", "postcode": "80636", "hours": "Tu,We 11:00-16:00; Th,Fr 11:00-18:30; Sa 10:00-14:00; PH off", "cuisine": "", "outdoor": true, "wheelchair": "", "wifi": false, "phone": "+49 89 12003316", "website": "https://diemercerie.com"}, {"id": "7786283836", "name": "Dinatale", "lat": 48.1548317, "lng": 11.5795111, "street": "Georgenstraße", "housenumber": "24", "postcode": "80799", "hours": "", "cuisine": "", "outdoor": true, "wheelchair": "", "wifi": false, "phone": "", "website": ""}, {"id": "10574765396", "name": "Dinatale", "lat": 48.1578872, "lng": 11.5738068, "street": "Elisabethstraße", "housenumber": "2", "postcode": "80796", "hours": "Mo-Sa 10:00-16:00", "cuisine": "italian", "outdoor": true, "wheelchair": "limited", "wifi": false, "phone": "", "website": ""}, {"id": "11073340805", "name": "Dolce e Salato", "lat": 48.1208429, "lng": 11.5193958, "street": "Hinterbärenbadstraße", "housenumber": "74", "postcode": "81373", "hours": "", "cuisine": "", "outdoor": false, "wheelchair": "yes", "wifi": false, "phone": "", "website": ""}, {"id": "362102662", "name": "Donuts & Candies", "lat": 48.1549486, "lng": 11.5752318, "street": "Georgenstraße", "housenumber": "41", "postcode": "80799", "hours": "Mo-Sa 09:00-19:00", "cuisine": "", "outdoor": false, "wheelchair": "yes", "wifi": false, "phone": "", "website": ""}, {"id": "5768802865", "name": "Drinkerei", "lat": 48.1503167, "lng": 11.5638813, "street": "", "housenumber": "", "postcode": "", "hours": "Mo-Sa 11:45-19:15; Su 11:45-18:00", "cuisine": "", "outdoor": false, "wheelchair": "limited", "wifi": false, "phone": "", "website": ""}, {"id": "2708539829", "name": "EREMITage Nymphenburg", "lat": 48.158533, "lng": 11.526973, "street": "Nymphenburger Straße", "housenumber": "216", "postcode": "80639", "hours": "", "cuisine": "", "outdoor": true, "wheelchair": "", "wifi": false, "phone": "", "website": ""}, {"id": "3869464080", "name": "Eataly", "lat": 48.1342319, "lng": 11.5742195, "street": "Viktualienmarkt", "housenumber": "15", "postcode": "80331", "hours": "Mo-Th 08:00-20:00; Fr,Sa 08:00-23:00; Su 11:00-20:00", "cuisine": "italian", "outdoor": true, "wheelchair": "yes", "wifi": false, "phone": "", "website": "https://www.eataly.net/de_de/geschaefte/muenchen/"}, {"id": "3235024979", "name": "Edelweiss", "lat": 48.1163819, "lng": 11.5823846, "street": "Sankt-Martin-Straße", "housenumber": "9", "postcode": "81541", "hours": "We-Fr 11:30-17:00", "cuisine": "", "outdoor": false, "wheelchair": "limited", "wifi": false, "phone": "", "website": "https://www.edel-weiss.info/"}, {"id": "11148151029", "name": "Eduard's", "lat": 48.1359683, "lng": 11.5723622, "street": "", "housenumber": "", "postcode": "", "hours": "Mo-We,Fr,Sa 10:00-22:00; Th 10:00-23:00", "cuisine": "", "outdoor": true, "wheelchair": "yes", "wifi": false, "phone": "", "website": ""}, {"id": "7128363450", "name": "Eduards Cafe Bar", "lat": 48.1461998, "lng": 11.5345257, "street": "Richelstraße", "housenumber": "2", "postcode": "80634", "hours": "", "cuisine": "", "outdoor": false, "wheelchair": "", "wifi": false, "phone": "", "website": ""}, {"id": "2335172007", "name": "Eis Cafe Italia", "lat": 48.1212361, "lng": 11.5616094, "street": "Ehrengutstraße", "housenumber": "23", "postcode": "80469", "hours": "Mo-Su 08:00-23:00", "cuisine": "ice_cream", "outdoor": true, "wheelchair": "limited", "wifi": false, "phone": "", "website": ""}, {"id": "1944044658", "name": "Eiscafe Crema", "lat": 48.0783096, "lng": 11.5074088, "street": "Herterichstraße", "housenumber": "101", "postcode": "", "hours": "Mar-Oct 10:00-sunset", "cuisine": "ice_cream", "outdoor": true, "wheelchair": "yes", "wifi": false, "phone": "", "website": ""}, {"id": "1399681634", "name": "Eiscafe Galleria", "lat": 48.1145619, "lng": 11.4783267, "street": "Heiglhofstraße", "housenumber": "6a", "postcode": "81377", "hours": "Mo,We-Su 10:00-22:00", "cuisine": "ice_cream;pizza;sandwich;italian", "outdoor": true, "wheelchair": "yes", "wifi": false, "phone": "+49 89 78071975", "website": ""}, {"id": "692957734", "name": "Eiscafe La Fantastica", "lat": 48.0992488, "lng": 11.5197353, "street": "Boschetsrieder Straße", "housenumber": "118", "postcode": "81379", "hours": "", "cuisine": "ice_cream", "outdoor": false, "wheelchair": "no", "wifi": true, "phone": "", "website": ""}, {"id": "2489109448", "name": "Eiscafe Portofino", "lat": 48.1475763, "lng": 11.460366, "street": "", "housenumber": "", "postcode": "", "hours": "Mo-Su 08:00-23:00", "cuisine": "italian;ice_cream", "outdoor": true, "wheelchair": "", "wifi": false, "phone": "+49 89 8203365", "website": ""}, {"id": "843807395", "name": "Eiscafe Venezia", "lat": 48.1531376, "lng": 11.5325876, "street": "Rotkreuzplatz", "housenumber": "8", "postcode": "80634", "hours": "Mo-Su 08:00-24:00", "cuisine": "ice_cream", "outdoor": true, "wheelchair": "limited", "wifi": false, "phone": "+49 89 132004", "website": "https://eiscafe-venezia-muenchen.de/"}, {"id": "382977470", "name": "Eiscafé Adamello", "lat": 48.1324409, "lng": 11.5961294, "street": "Preysingstraße", "housenumber": "29", "postcode": "81667", "hours": "Mo-Su 11:00-23:00", "cuisine": "", "outdoor": true, "wheelchair": "yes", "wifi": false, "phone": "+49 89 483283", "website": "https://www.eiscafe-adamello.de/"}, {"id": "263889140", "name": "Eiscafé Gondola", "lat": 48.1282393, "lng": 11.5996648, "street": "Pariser Straße", "housenumber": "29a", "postcode": "81667", "hours": "Mo-Fr 09:30-18:00; Sa 10:00-18:00", "cuisine": "ice_cream", "outdoor": true, "wheelchair": "no", "wifi": false, "phone": "", "website": ""}, {"id": "1508791060", "name": "Eisenrieder", "lat": 48.1747926, "lng": 11.5984662, "street": "Ungererstraße", "housenumber": "137", "postcode": "80805", "hours": "Mo-Su 09:00-16:00", "cuisine": "", "outdoor": false, "wheelchair": "yes", "wifi": false, "phone": "", "website": ""}, {"id": "914961566", "name": "Elly Seidl Pralinen", "lat": 48.1479948, "lng": 11.4604365, "street": "Am Schützeneck", "housenumber": "10", "postcode": "81241", "hours": "Mo-Fr 09:00-18:30; Sa 09:00-14:00; Su,PH off", "cuisine": "", "outdoor": false, "wheelchair": "yes", "wifi": false, "phone": "+49 89 86 46 67 680", "website": "https://ellyseidl.de/"}, {"id": "3661907645", "name": "Emmi's Glockenbach", "lat": 48.1326552, "lng": 11.5789107, "street": "Buttermelcherstraße", "housenumber": "11-15", "postcode": "80469", "hours": "Mo-Su 09:00-17:00", "cuisine": "regional", "outdoor": true, "wheelchair": "", "wifi": false, "phone": "", "website": ""}, {"id": "11029451216", "name": "Emporio Armani Caffe", "lat": 48.1406561, "lng": 11.5756921, "street": "", "housenumber": "", "postcode": "", "hours": "Mo-Sa 10:00-20:00", "cuisine": "", "outdoor": false, "wheelchair": "limited", "wifi": false, "phone": "", "website": ""}, {"id": "1602478402", "name": "Eni Café", "lat": 48.1680953, "lng": 11.6247155, "street": "", "housenumber": "", "postcode": "", "hours": "", "cuisine": "", "outdoor": false, "wheelchair": "", "wifi": false, "phone": "", "website": ""}, {"id": "9347174619", "name": "Epique Raw", "lat": 48.1351596, "lng": 11.598013, "street": "Max-Weber-Platz", "housenumber": "11", "postcode": "", "hours": "Mo-Fr 08:00-18:00; Sa 10:00-18:00", "cuisine": "", "outdoor": false, "wheelchair": "", "wifi": false, "phone": "", "website": "https://epiqueraw.com/"}, {"id": "6651318577", "name": "Espressini", "lat": 48.1580479, "lng": 11.5856357, "street": "Trautenwolfstraße", "housenumber": "1", "postcode": "80802", "hours": "", "cuisine": "", "outdoor": false, "wheelchair": "no", "wifi": false, "phone": "", "website": ""}, {"id": "10244266823", "name": "EspressoBar by BalanDeli", "lat": 48.1426312, "lng": 11.5744337, "street": "Brienner Straße", "housenumber": "11", "postcode": "80333", "hours": "Mo-Fr 08:00-15:00", "cuisine": "coffee_shop;lunch", "outdoor": true, "wheelchair": "yes", "wifi": false, "phone": "", "website": ""}, {"id": "835352662", "name": "Espressothek", "lat": 48.1558446, "lng": 11.5124775, "street": "", "housenumber": "", "postcode": "", "hours": "Mo-Fr 08:00-17:00", "cuisine": "", "outdoor": false, "wheelchair": "yes", "wifi": false, "phone": "", "website": ""}, {"id": "1609203944", "name": "Etisch", "lat": 48.1348654, "lng": 11.5398519, "street": "Kazmairstraße", "housenumber": "38", "postcode": "80339", "hours": "Mo,Tu,Th,Fr 10:00-16:00; Sa 10:00-16:00", "cuisine": "", "outdoor": true, "wheelchair": "no", "wifi": true, "phone": "", "website": ""}, {"id": "3795812388", "name": "FIKA Ladencafé", "lat": 48.1381291, "lng": 11.5410578, "street": "Westendstraße", "housenumber": "87", "postcode": "80339", "hours": "", "cuisine": "", "outdoor": false, "wheelchair": "no", "wifi": false, "phone": "", "website": ""}, {"id": "3722731519", "name": "FRANCESCA", "lat": 48.1579764, "lng": 11.5786787, "street": "Franz-Joseph-Straße", "housenumber": "30", "postcode": "80801", "hours": "Tu-Sa 09:00-17:00; Su 10:00-17:00", "cuisine": "", "outdoor": true, "wheelchair": "limited", "wifi": false, "phone": "", "website": ""}, {"id": "3078126715", "name": "Familienbäckerei", "lat": 48.1128196, "lng": 11.5770989, "street": "Tegernseer Landstraße", "housenumber": "123", "postcode": "81539", "hours": "Mo-Sa 06:30-20:00; Su,PH 07:00-20:00", "cuisine": "", "outdoor": true, "wheelchair": "", "wifi": false, "phone": "", "website": ""},